20:35:26, 1679862926, 0.00000, 0.00000, 0.00, 0, 0, 0, 0, 17.19, 100909.55, -226.32, -226.32, -0.00, -0.00, 0.00, 0.00, -0.00, -1.13, 1.24, 9.77, 173.00, 30.41, 0, 4294967295, 4294967295, 0, 0, 0, 0, 0, 0, 0, 0, 2, 0
$GPGGA,235943.800,,,,,0,00,,,M,,M,,*7A
20:35:27, 1679862927, 0.00000, 0.00000, 0.00, 0, 0, 0, 0, 17.34, 100904.89, -225.93, -225.93, 0.39, 0.07, 0.00, 0.00, 0.07, -2.51, -0.19, 9.84, 122.00, 21.45, 0, 4294967295, 4294967295, 0, 0, 0, 0, 0, 0, 0, 0, 2, 0
$GPGGA,235944.799,,,,,0,00,,,M,,M,,*72
20:35:28, 1679862928, 0.00000, 0.00000, 0.00, 0, 0, 0, 0, 17.36, 100909.20, -226.30, -226.30, -0.36, -0.05, 0.00, 0.00, -0.05, -1.84, -0.57, 9.78, 140.00, 24.61, 0, 4294967295, 4294967295, 0, 0, 0, 0, 0, 0, 0, 0, 2, 0
$GPGGA,235945.799,,,,,0,00,,,M,,M,,*73
20:35:29, 1679862929, 0.00000, 0.00000, 0.00, 0, 0, 0, 0, 17.38, 100906.19, -226.04, -226.04, 0.25, 0.04, 0.00, 0.00, 0.04, -1.09, -0.36, 9.58, 139.00, 24.43, 0, 4294967295, 4294967295, 0, 0, 0, 0, 0, 0, 0, 0, 2, 0
$GPGGA,235946.799,,,,,0,00,,,M,,M,,*70
20:35:30, 1679862930, 0.00000, 0.00000, 0.00, 0, 0, 0, 0, 17.39, 100907.58, -226.16, -226.16, -0.12, -0.01, 0.00, 0.00, -0.01, -0.30, -0.10, 10.53, 182.00, 31.99, 0, 4294967295, 4294967295, 0, 0, 0, 0, 0, 0, 0, 0, 2, 0
$GPGGA,235948.799,,,,,0,00,,,M,,M,,*7E
20:35:31, 1679862931, 0.00000, 0.00000, 0.00, 0, 0, 0, 0, 17.39, 100910.19, -226.38, -226.38, -0.22, -0.03, 0.00, 0.00, -0.03, -0.60, 0.52, 11.48, 225.00, 39.55, 0, 4294967295, 4294967295, 0, 0, 0, 0, 0, 0, 0, 0, 2, 0
$GPGGA,235949.799,,,,,0,00,,,M,,M,,*7F
20:35:32, 1679862932, 0.00000, 0.00000, 0.00, 0, 0, 0, 0, 17.35, 100902.17, -225.70, -225.70, 0.67, 0.12, 0.00, 0.00, 0.12, -1.36, 2.43, 10.15, 810.00, 142.38, 0, 4294967295, 4294967295, 0, 0, 0, 0, 0, 0, 0, 0, 2, 0
$GPGGA,235950.800,,,,,0,00,,,M,,M,,*78
20:35:33, 1679862933, 0.00000, 0.00000, 0.00, 0, 0, 0, 0, 17.35, 100902.75, -225.75, -225.75, -0.05, 0.00, 0.00, 0.00, 0.00, -0.13, 2.83, 8.57, 795.00, 139.75, 0, 4294967295, 4294967295, 0, 0, 0, 0, 0, 0, 0, 0, 2, 0
$GPGGA,235951.800,,,,,0,00,,,M,,M,,*79
20:35:34, 1679862934, 0.00000, 0.00000, 0.00, 0, 0, 0, 0, 17.36, 100910.88, -226.44, -226.44, -0.68, -0.09, 0.00, 0.00, -0.09, 1.03, 0.47, 11.16, 795.00, 139.75, 0, 4294967295, 4294967295, 0, 0, 0, 0, 0, 0, 0, 0, 2, 0
$GPGGA,235952.800,,,,,0,00,,,M,,M,,*7A
20:35:35, 1679862935, 0.00000, 0.00000, 0.00, 0, 0, 0, 0, 17.35, 100908.27, -226.22, -226.22, 0.22, 0.03, 0.00, 0.00, 0.03, -0.63, 0.86, 10.11, 772.00, 135.70, 0, 4294967295, 4294967295, 0, 0, 0, 0, 0, 0, 0, 0, 2, 0
$GPGGA,235954.019,,,,,0,00,,,M,,M,,*7C
20:35:36, 1679862936, 0.00000, 0.00000, 0.00, 0, 0, 0, 0, 17.35, 100906.70, -226.09, -226.09, 0.13, 0.03, 0.00, 0.00, 0.03, -0.92, 1.97, 9.14, 804.00, 141.33, 0, 4294967295, 4294967295, 0, 0, 0, 0, 0, 0, 0, 0, 2, 0
$GPGGA,235954.239,,,,,0,00,,,M,,M,,*7C
20:35:37, 1679862937, 0.00000, 0.00000, 0.00, 0, 0, 0, 0, 17.33, 100906.87, -226.10, -226.10, -0.01, 0.01, 0.00, 0.00, 0.01, -1.12, 1.35, 9.65, 801.00, 140.80, 0, 4294967295, 4294967295, 0, 0, 0, 0, 0, 0, 0, 0, 2, 0
$GPGGA,003655.312,,,,,0,00,,,M,,M,,*7D
20:35:38, 1679862938, 0.00000, 0.00000, 0.00, 0, 0, 0, 0, 17.35, 100904.73, -225.92, -225.92, 0.18, 0.03, 0.00, 0.00, 0.03, -0.99, 1.19, 10.09, 775.00, 136.23, 0, 4294967295, 4294967295, 0, 0, 0, 0, 0, 0, 0, 0, 2, 0
$GPGGA,003656.312,,,,,0,00,,,M,,M,,*7E
20:35:39, 1679862939, 0.00000, 0.00000, 0.00, 0, 0, 0, 0, 17.34, 100909.82, -226.35, -226.35, -0.43, -0.07, 0.00, 0.00, -0.07, -0.60, 1.19, 9.71, 790.00, 138.87, 0, 4294967295, 4294967295, 0, 0, 0, 0, 0, 0, 0, 0, 2, 0
$GPGGA,003657.312,,,,,0,00,,,M,,M,,*7F
20:35:40, 1679862940, 0.00000, 0.00000, 0.00, 0, 0, 0, 0, 17.34, 100907.47, -226.15, -226.15, 0.20, 0.04, 0.00, 0.00, 0.04, -0.76, 1.08, 9.60, 785.00, 137.99, 0, 4294967295, 4294967295, 0, 0, 0, 0, 0, 0, 0, 0, 2, 0
$GPGGA,003658.312,,,,,0,00,,,M,,M,,*70
20:35:41, 1679862941, 0.00000, 0.00000, 0.00, 0, 0, 0, 0, 17.33, 100905.75, -226.09, -226.09, 0.06, 0.02, 0.00, 0.00, 0.02, -0.77, 1.20, 9.71, 798.00, 140.27, 0, 4294967295, 4294967295, 0, 0, 0, 0, 0, 0, 0, 0, 2, 0
$GPGGA,003700.100,,,,,0,00,,,M,,M,,*7D
20:35:42, 1679862942, 0.00000, 0.00000, 0.00, 0, 0, 0, 0, 17.33, 100904.94, -225.94, -225.94, 0.15, 0.03, 0.00, 0.00, 0.03, -0.22, 1.09, 9.95, 794.00, 139.57, 0, 4294967295, 4294967295, 0, 0, 0, 0, 0, 0, 0, 0, 2, 0
$GPGGA,003701.100,,,,,0,00,,,M,,M,,*7C
20:35:43, 1679862943, 0.00000, 0.00000, 0.00, 0, 0, 0, 0, 17.33, 100906.48, -226.07, -226.07, -0.13, -0.01, 0.00, 0.00, -0.01, -0.85, 1.03, 9.64, 798.00, 140.27, 0, 4294967295, 4294967295, 0, 0, 0, 0, 0, 0, 0, 0, 2, 0
$GPGGA,003702.100,,,,,0,00,,,M,,M,,*7F
20:35:44, 1679862944, 0.00000, 0.00000, 0.00, 0, 0, 0, 0, 17.34, 100903.38, -225.81, -225.81, 0.26, 0.04, 0.00, 0.00, 0.04, -1.08, 1.06, 9.81, 811.00, 142.56, 0, 4294967295, 4294967295, 0, 0, 0, 0, 0, 0, 0, 0, 2, 0
$GPGGA,003703.100,,,,,0,00,,,M,,M,,*7E
20:35:45, 1679862945, 0.00000, 0.00000, 0.00, 0, 0, 0, 0, 17.35, 100903.73, -225.84, -225.84, -0.03, 0.01, 0.00, 0.00, 0.01, -0.98, 1.05, 9.53, 800.00, 140.63, 0, 4294967295, 4294967295, 0, 0, 0, 0, 0, 0, 0, 0, 2, 0
$GPGGA,003704.100,,,,,0,00,,,M,,M,,*79
20:35:47, 1679862947, 0.00000, 0.00000, 0.00, 0, 0, 0, 0, 17.34, 100906.55, -226.07, -226.07, -0.12, -0.00, 0.00, 0.00, -0.00, -0.97, 0.98, 9.93, 758.00, 133.24, 0, 4294967295, 4294967295, 0, 0, 0, 0, 0, 0, 0, 0, 2, 0
$GPGGA,003705.100,,,,,0,00,,,M,,M,,*78
20:35:48, 1679862948, 0.00000, 0.00000, 0.00, 0, 0, 0, 0, 17.34, 100906.55, -226.07, -226.07, 0.00, 0.01, 0.00, 0.00, 0.01, -0.56, 0.60, 10.10, 788.00, 138.52, 0, 4294967295, 4294967295, 0, 0, 0, 0, 0, 0, 0, 0, 2, 0
$GPGGA,003706.100,,,,,0,00,,,M,,M,,*7B
20:35:49, 1679862949, 0.00000, 0.00000, 0.00, 0, 0, 0, 0, 17.34, 100905.05, -225.95, -225.95, 0.13, 0.03, 0.00, 0.00, 0.03, 0.14, 0.33, 10.28, 823.00, 144.67, 0, 4294967295, 4294967295, 0, 0, 0, 0, 0, 0, 0, 0, 2, 0
$GPGGA,003707.100,,,,,0,00,,,M,,M,,*7A
20:35:50, 1679862950, 0.00000, 0.00000, 0.00, 0, 0, 0, 0, 17.33, 100903.30, -225.80, -225.80, 0.15, 0.04, 0.00, 0.00, 0.04, -0.74, 1.26, 9.65, 803.00, 141.15, 0, 4294967295, 4294967295, 0, 0, 0, 0, 0, 0, 0, 0, 2, 0
$GPGGA,003708.100,,,,,0,00,,,M,,M,,*75
20:35:51, 1679862951, 0.00000, 0.00000, 0.00, 0, 0, 0, 0, 17.32, 100906.02, -226.03, -226.03, -0.23, -0.02, 0.00, 0.00, -0.02, 0.60, 1.60, 9.90, 798.00, 140.27, 0, 4294967295, 4294967295, 0, 0, 0, 0, 0, 0, 0, 0, 2, 0
$GPGGA,003709.100,,,,,0,00,,,M,,M,,*74
20:35:52, 1679862952, 0.00000, 0.00000, 0.00, 0, 0, 0, 0, 17.31, 100907.70, -226.17, -226.17, -0.14, -0.01, 0.00, 0.00, -0.01, -0.95, 1.50, 9.40, 789.00, 138.69, 0, 4294967295, 4294967295, 0, 0, 0, 0, 0, 0, 0, 0, 2, 0
$GPGGA,003710.100,,,,,0,00,,,M,,M,,*7C
20:35:53, 1679862953, 0.00000, 0.00000, 0.00, 0, 0, 0, 0, 17.31, 100903.69, -225.83, -225.83, 0.34, 0.06, 0.00, 0.00, 0.06, -0.45, 0.86, 10.06, 795.00, 139.75, 0, 4294967295, 4294967295, 0, 0, 0, 0, 0, 0, 0, 0, 2, 0
$GPGGA,003711.100,,,,,0,00,,,M,,M,,*7D
20:35:54, 1679862954, 0.00000, 0.00000, 0.00, 0, 0, 0, 0, 17.31, 100905.74, -226.00, -226.00, -0.17, -0.01, 0.00, 0.00, -0.01, -1.08, 1.01, 10.00, 802.00, 140.98, 0, 4294967295, 4294967295, 0, 0, 0, 0, 0, 0, 0, 0, 2, 0
$GPGGA,003712.312,,,,,0,00,,,M,,M,,*7F
20:35:55, 1679862955, 0.00000, 0.00000, 0.00, 0, 0, 0, 0, 17.30, 100906.80, -226.09, -226.09, -0.09, -0.01, 0.00, 0.00, -0.01, -1.50, 0.81, 8.91, 782.00, 137.46, 0, 4294967295, 4294967295, 0, 0, 0, 0, 0, 0, 0, 0, 2, 0
$GPGGA,003713.312,,,,,0,00,,,M,,M,,*7E
20:35:56, 1679862956, 0.00000, 0.00000, 0.00, 0, 0, 0, 0, 17.30, 100905.65, -226.00, -226.00, 0.10, 0.02, 0.00, 0.00, 0.02, -1.93, 0.70, 10.38, 786.00, 138.16, 0, 4294967295, 4294967295, 0, 0, 0, 0, 0, 0, 0, 0, 2, 0
$GPGGA,003714.312,,,,,0,00,,,M,,M,,*79
20:35:57, 1679862957, 0.00000, 0.00000, 0.00, 0, 0, 0, 0, 17.28, 100903.16, -225.79, -225.79, 0.21, 0.04, 0.00, 0.00, 0.04, -1.40, 0.49, 9.69, 790.00, 138.87, 0, 4294967295, 4294967295, 0, 0, 0, 0, 0, 0, 0, 0, 2, 0
$GPGGA,003715.312,,,,,0,00,,,M,,M,,*78
20:35:58, 1679862958, 0.00000, 0.00000, 0.00, 0, 0, 0, 0, 17.28, 100902.66, -225.75, -225.75, 0.04, 0.02, 0.00, 0.00, 0.02, -0.12, 1.76, 8.71, 787.00, 138.34, 0, 4294967295, 4294967295, 0, 0, 0, 0, 0, 0, 0, 0, 2, 0
$GPGGA,003716.312,,,,,0,00,,,M,,M,,*7B
20:35:59, 1679862959, 0.00000, 0.00000, 0.00, 0, 0, 0, 0, 17.29, 100907.13, -226.12, -226.12, -0.37, -0.05, 0.00, 0.00, -0.05, -0.41, 0.68, 9.40, 819.00, 143.96, 0, 4294967295, 4294967295, 0, 0, 0, 0, 0, 0, 0, 0, 2, 0
$GPGGA,003717.312,,,,,0,00,,,M,,M,,*7A
20:36:00, 1679862960, 0.00000, 0.00000, 0.00, 0, 0, 0, 0, 17.28, 100908.19, -226.21, -226.21, -0.09, -0.01, 0.00, 0.00, -0.01, -0.59, -0.55, 9.92, 802.00, 140.98, 0, 4294967295, 4294967295, 0, 0, 0, 0, 0, 0, 0, 0, 2, 0
$GPGGA,003718.332,,,,,0,00,,,M,,M,,*77
20:36:01, 1679862961, 0.00000, 0.00000, 0.00, 0, 0, 0, 0, 17.29, 100906.03, -226.03, -226.03, 0.18, 0.03, 0.00, 0.00, 0.03, -1.15, 0.43, 9.81, 758.00, 133.24, 0, 4294967295, 4294967295, 0, 0, 0, 0, 0, 0, 0, 0, 2, 0
$GPGGA,003719.332,,,,,0,00,,,M,,M,,*76
20:36:02, 1679862962, 0.00000, 0.00000, 0.00, 0, 0, 0, 0, 17.29, 100905.77, -226.01, -226.01, 0.02, 0.01, 0.00, 0.00, 0.01, -1.47, 1.18, 9.47, 783.00, 137.64, 0, 4294967295, 4294967295, 0, 0, 0, 0, 0, 0, 0, 0, 2, 0
$GPGGA,003720.332,,,,,0,00,,,M,,M,,*7C
20:36:03, 1679862963, 0.00000, 0.00000, 0.00, 0, 0, 0, 0, 17.29, 100908.77, -226.26, -226.26, -0.25, -0.04, 0.00, 0.00, -0.04, -1.60, 0.42, 10.30, 791.00, 139.04, 0, 4294967295, 4294967295, 0, 0, 0, 0, 0, 0, 0, 0, 2, 0
$GPGGA,003721.332,,,,,0,00,,,M,,M,,*7D
20:36:04, 1679862964, 0.00000, 0.00000, 0.00, 0, 0, 0, 0, 17.27, 100906.70, -226.09, -226.09, 0.17, 0.02, 0.00, 0.00, 0.02, -0.98, 0.47, 9.85, 797.00, 140.10, 0, 4294967295, 4294967295, 0, 0, 0, 0, 0, 0, 0, 0, 2, 0
$GPGGA,003722.332,,,,,0,00,,,M,,M,,*7E
20:36:05, 1679862965, 0.00000, 0.00000, 0.00, 0, 0, 0, 0, 17.25, 100910.89, -226.44, -226.44, -0.35, -0.06, 0.00, 0.00, -0.06, -2.15, -0.15, 11.14, 793.00, 139.39, 0, 4294967295, 4294967295, 0, 0, 0, 0, 0, 0, 0, 0, 2, 0
$GPGGA,003724.095,,,,,0,06,,,M,,M,,*70
20:36:06, 1679862966, 0.00000, 0.00000, 0.00, 0, 0, 0, 0, 17.25, 100906.36, -226.06, -226.06, 0.38, 0.06, 0.00, 0.00, 0.06, -0.75, 0.59, 9.17, 789.00, 138.69, 0, 4294967295, 4294967295, 0, 0, 0, 0, 0, 0, 0, 0, 2, 0
$GPGGA,003725.095,3859.6989,N,07656.6491,W,1,06,1.49,56.8,M,-33.5,M,,*69
20:36:07, 1679862967, 38.99498, -76.94415, 56.80, 6, 0, 1, 0, 17.25, 100904.77, -225.92, 56.80, 0.13, 0.02, 56.80, 9.47, 9.47, -0.95, 0.73, 8.60, 804.00, 141.33, 0, 4294967295, 4294967295, 0, 0, 0, 0, 0, 0, 0, 0, 0, 0
20:36:08, 1679862968, 38.99498, -76.94415, 56.80, 6, 0, 1, 0, 17.25, 100907.30, -226.14, 56.80, -0.21, -0.04, 0.00, 1.58, 1.58, -0.76, 0.90, 8.61, 761.00, 133.77, 0, 4294967295, 4294967295, 0, 0, 0, 0, 0, 0, 0, 0, 0, 0
$GPGGA,003727.000,3859.6999,N,07656.6501,W,1,06,1.49,61.1,M,-33.5,M,,*63
20:36:09, 1679862969, 38.99500, -76.94417, 61.10, 6, 0, 1, 0, 17.23, 100905.73, -226.00, 61.10, 0.13, 0.02, 4.30, 2.56, 2.56, -2.06, 1.30, 10.43, 773.00, 135.88, 0, 4294967295, 4294967295, 0, 0, 0, 0, 0, 0, 0, 0, 0, 0
$GPGGA,003728.000,3859.7002,N,07656.6498,W,1,06,1.49,61.7,M,-33.5,M,,*61
20:36:10, 1679862970, 38.99501, -76.94416, 61.70, 6, 0, 1, 0, 17.23, 100908.04, -226.20, 61.70, -0.19, -0.03, 0.60, 2.37, 2.37, -0.41, 0.65, 10.06, 805.00, 141.50, 0, 4294967295, 4294967295, 0, 0, 0, 0, 0, 0, 0, 0, 0, 0
$GPGGA,003729.000,3859.7000,N,07656.6492,W,1,06,1.49,60.0,M,-33.5,M,,*6E
20:36:12, 1679862972, 38.99500, -76.94415, 60.00, 6, 0, 1, 0, 17.23, 100907.80, -226.18, 60.00, 0.01, 0.01, -0.85, 2.52, 2.52, -0.27, 0.32, 8.36, 814.00, 143.09, 0, 4294967295, 4294967295, 0, 0, 0, 0, 0, 0, 0, 0, 0, 0
$GPGGA,003730.000,3859.7002,N,07656.6491,W,1,06,1.49,60.2,M,-33.5,M,,*65
20:36:13, 1679862973, 38.99501, -76.94415, 60.20, 6, 0, 1, 0, 17.24, 100911.84, -226.52, 60.20, -0.34, -0.06, 0.20, 3.11, 3.11, -0.41, -0.42, 9.51, 838.00, 147.30, 0, 4294967295, 4294967295, 0, 0, 0, 0, 0, 0, 0, 0, 0, 0
$GPGGA,003731.000,3859.7003,N,07656.6491,W,1,07,1.36,60.5,M,-33.5,M,,*6B
20:36:14, 1679862974, 38.99501, -76.94415, 60.50, 7, 0, 1, 0, 17.22, 100909.61, -226.33, 60.50, 0.19, 0.02, 0.30, 2.07, 2.07, -1.14, 0.13, 10.10, 808.00, 142.03, 0, 4294967295, 4294967295, 0, 0, 0, 0, 0, 0, 0, 0, 0, 0
$GPGGA,003732.000,3859.7003,N,07656.6491,W,1,07,1.20,60.5,M,-33.5,M,,*6F
20:36:15, 1679862975, 38.99501, -76.94415, 60.50, 7, 0, 1, 0, 17.22, 100910.19, -226.38, 60.50, -0.05, -0.02, 0.00, 2.11, 2.11, -0.92, 0.00, 9.24, 828.00, 145.55, 0, 4294967295, 4294967295, 0, 0, 0, 0, 0, 0, 0, 0, 0, 0
$GPGGA,003733.000,3859.7004,N,07656.6491,W,1,07,1.20,60.7,M,-33.5,M,,*6B
20:36:16, 1679862976, 38.99501, -76.94415, 60.70, 7, 0, 1, 0, 17.23, 100907.80, -226.18, 60.70, 0.20, 0.02, 0.20, 2.06, 2.06, -0.03, 0.10, 9.17, 814.00, 143.09, 0, 4294967295, 4294967295, 0, 0, 0, 0, 0, 0, 0, 0, 0, 0
$GPGGA,003734.000,3859.7003,N,07656.6492,W,1,07,1.19,60.7,M,-33.5,M,,*62
20:36:17, 1679862977, 38.99501, -76.94415, 60.70, 7, 0, 1, 0, 17.23, 100909.21, -226.30, 60.70, -0.12, -0.03, 0.00, 1.98, 1.98, 0.40, 0.71, 9.76, 822.00, 144.49, 0, 4294967295, 4294967295, 0, 0, 0, 0, 0, 0, 0, 0, 0, 0
$GPGGA,003735.000,3859.7004,N,07656.6493,W,1,07,1.20,60.6,M,-33.5,M,,*6E
20:36:18, 1679862978, 38.99501, -76.94415, 60.60, 7, 0, 1, 0, 17.22, 100909.91, -226.35, 60.60, -0.06, -0.02, -0.10, 1.87, 1.87, 0.12, 0.91, 9.54, 760.00, 133.59, 0, 4294967295, 4294967295, 0, 0, 0, 0, 0, 0, 0, 0, 0, 0
$GPGGA,003736.000,3859.7006,N,07656.6495,W,1,07,1.20,60.6,M,-33.5,M,,*69
20:36:19, 1679862979, 38.99501, -76.94415, 60.60, 7, 0, 1, 0, 17.23, 100907.92, -226.19, 60.60, 0.17, 0.02, 0.00, 1.68, 1.68, -0.23, 1.66, 8.46, 809.00, 142.21, 0, 4294967295, 4294967295, 0, 0, 0, 0, 0, 0, 0, 0, 0, 0
$GPGGA,003737.000,3859.7006,N,07656.6496,W,1,07,1.20,60.6,M,-33.5,M,,*6B
20:36:20, 1679862980, 38.99501, -76.94416, 60.60, 7, 0, 1, 0, 17.23, 100908.97, -226.28, 60.60, -0.09, -0.02, 0.00, 1.62, 1.62, 0.22, 0.79, 9.38, 791.00, 139.04, 0, 4294967295, 4294967295, 0, 0, 0, 0, 0, 0, 0, 0, 0, 0
$GPGGA,003738.000,3859.7007,N,07656.6496,W,1,07,1.20,60.7,M,-33.5,M,,*64
20:36:21, 1679862981, 38.99501, -76.94416, 60.70, 7, 0, 1, 0, 17.22, 100908.95, -226.27, 60.70, 0.00, -0.00, 0.10, 1.55, 1.55, 1.17, 1.56, 8.82, 817.00, 143.61, 0, 4294967295, 4294967295, 0, 0, 0, 0, 0, 0, 0, 0, 0, 0
$GPGGA,003739.000,3859.7008,N,07656.6496,W,1,07,1.20,60.6,M,-33.5,M,,*6B
20:36:22, 1679862982, 38.99501, -76.94416, 60.60, 7, 0, 1, 0, 17.21, 100910.23, -226.38, 60.60, -0.11, -0.03, -0.10, 1.43, 1.43, -0.75, 1.55, 9.77, 767.00, 134.82, 0, 4294967295, 4294967295, 0, 0, 0, 0, 0, 0, 0, 0, 0, 0
$GPGGA,003740.000,3859.7009,N,07656.6496,W,1,07,1.20,60.3,M,-33.5,M,,*61
20:36:23, 1679862983, 38.99502, -76.94416, 60.30, 7, 0, 1, 0, 17.18, 100906.93, -226.10, 60.30, 0.28, 0.04, -0.30, 1.31, 1.31, -1.60, 2.26, 9.38, 818.00, 143.79, 0, 4294967295, 4294967295, 0, 0, 0, 0, 0, 0, 0, 0, 0, 0
$GPGGA,003742.000,3859.7011,N,07656.6495,W,1,07,1.20,59.9,M,-33.5,M,,*69
20:36:24, 1679862984, 38.99502, -76.94415, 59.90, 7, 0, 1, 0, 17.18, 100908.24, -226.33, 59.90, -0.23, -0.04, -0.40, 1.20, 1.20, -1.21, 2.20, 9.78, 802.00, 140.98, 0, 4294967295, 4294967295, 0, 0, 0, 0, 0, 0, 0, 0, 0, 0
$GPGGA,003743.000,3859.7012,N,07656.6496,W,1,07,1.36,59.8,M,-33.5,M,,*6E
20:36:25, 1679862985, 38.99502, -76.94416, 59.80, 7, 0, 1, 0, 17.18, 100909.75, -226.34, 59.80, -0.01, -0.01, -0.10, 1.17, 1.17, -0.79, 1.97, 9.54, 817.00, 143.61, 0, 4294967295, 4294967295, 0, 0, 0, 0, 0, 0, 0, 0, 0, 0
$GPGGA,003744.000,3859.7012,N,07656.6496,W,1,07,1.36,59.9,M,-33.5,M,,*68
20:36:26, 1679862986, 38.99502, -76.94416, 59.90, 7, 0, 1, 0, 17.17, 100908.03, -226.20, 59.90, 0.14, 0.02, 0.10, 1.13, 1.13, -1.16, 1.50, 10.00, 817.00, 143.61, 0, 4294967295, 4294967295, 0, 0, 0, 0, 0, 0, 0, 0, 0, 0
$GPGGA,003745.000,3859.7011,N,07656.6497,W,1,07,1.20,60.1,M,-33.5,M,,*6E
20:36:27, 1679862987, 38.99502, -76.94416, 60.10, 7, 0, 1, 0, 17.17, 100907.63, -226.16, 60.10, 0.03, 0.00, 0.20, 1.07, 1.07, -0.18, 1.58, 9.77, 816.00, 143.44, 0, 4294967295, 4294967295, 0, 0, 0, 0, 0, 0, 0, 0, 0, 0
$GPGGA,003746.000,3859.7010,N,07656.6497,W,1,07,1.20,60.2,M,-33.5,M,,*6F
20:36:28, 1679862988, 38.99502, -76.94416, 60.20, 7, 0, 1, 0, 17.16, 100906.89, -226.10, 60.20, 0.06, 0.01, 0.10, 1.00, 1.00, -0.70, 1.46, 9.59, 815.00, 143.26, 0, 4294967295, 4294967295, 0, 0, 0, 0, 0, 0, 0, 0, 0, 0
$GPGGA,003747.000,3859.7009,N,07656.6497,W,1,07,1.20,60.3,M,-33.5,M,,*67
20:36:29, 1679862989, 38.99502, -76.94416, 60.30, 7, 0, 1, 0, 17.16, 100909.29, -226.30, 60.30, -0.20, -0.03, 0.10, 0.94, 0.94, -1.45, 1.66, 9.56, 793.00, 139.39, 0, 4294967295, 4294967295, 0, 0, 0, 0, 0, 0, 0, 0, 0, 0
$GPGGA,003748.000,3859.7007,N,07656.6498,W,1,07,1.20,60.5,M,-33.5,M,,*6F
20:36:30, 1679862990, 38.99501, -76.94416, 60.50, 7, 0, 1, 0, 17.16, 100911.59, -226.50, 60.50, -0.19, -0.03, 0.20, 0.92, 0.92, -0.69, 1.49, 9.60, 795.00, 139.75, 0, 4294967295, 4294967295, 0, 0, 0, 0, 0, 0, 0, 0, 0, 0
$GPGGA,003749.000,3859.7006,N,07656.6498,W,1,08,1.12,60.7,M,-33.5,M,,*63
20:36:31, 1679862991, 38.99501, -76.94416, 60.70, 8, 0, 1, 0, 17.17, 100908.51, -226.24, 60.70, 0.26, 0.04, 0.20, 0.88, 0.88, -0.71, 1.95, 9.22, 798.00, 140.27, 0, 4294967295, 4294967295, 0, 0, 0, 0, 0, 0, 0, 0, 0, 0
$GPGGA,003750.000,3859.7005,N,07656.6498,W,1,08,1.12,61.0,M,-33.5,M,,*6E
20:36:32, 1679862992, 38.99501, -76.94416, 61.00, 8, 0, 1, 0, 17.16, 100911.23, -226.47, 61.00, -0.23, -0.04, 0.30, 0.85, 0.85, -0.03, 1.79, 9.56, 799.00, 140.45, 0, 4294967295, 4294967295, 0, 0, 0, 0, 0, 0, 0, 0, 0, 0
$GPGGA,003751.000,3859.7005,N,07656.6498,W,1,08,1.12,61.1,M,-33.5,M,,*6E
20:36:33, 1679862993, 38.99501, -76.94416, 61.10, 8, 0, 1, 0, 17.14, 100909.72, -226.34, 61.10, 0.13, 0.01, 0.10, 0.78, 0.78, -0.11, 1.87, 9.26, 782.00, 137.46, 0, 4294967295, 4294967295, 0, 0, 0, 0, 0, 0, 0, 0, 0, 0
$GPGGA,003752.000,3859.7005,N,07656.6497,W,1,08,1.12,61.2,M,-33.5,M,,*61
20:36:35, 1679862995, 38.99501, -76.94416, 61.20, 8, 0, 1, 0, 17.14, 100910.80, -226.43, 61.20, -0.05, -0.02, 0.05, 0.74, 0.74, -0.49, 2.51, 11.18, 782.00, 137.46, 0, 4294967295, 4294967295, 0, 0, 0, 0, 0, 0, 0, 0, 0, 0
$GPGGA,003753.000,3859.7005,N,07656.6497,W,1,08,1.12,61.3,M,-33.5,M,,*61
20:36:36, 1679862996, 38.99501, -76.94416, 61.30, 8, 0, 1, 0, 17.13, 100908.13, -226.21, 61.30, 0.22, 0.03, 0.10, 0.71, 0.71, -0.15, 2.11, 10.01, 838.00, 147.30, 0, 4294967295, 4294967295, 0, 0, 0, 0, 0, 0, 0, 0, 0, 0
$GPGGA,003754.000,3859.7004,N,07656.6497,W,1,08,1.12,61.5,M,-33.5,M,,*61
20:36:37, 1679862997, 38.99501, -76.94416, 61.50, 8, 0, 1, 0, 17.15, 100907.92, -226.19, 61.50, 0.02, 0.01, 0.20, 0.69, 0.69, -0.08, 2.13, 9.75, 796.00, 139.92, 0, 4294967295, 4294967295, 0, 0, 0, 0, 0, 0, 0, 0, 0, 0
$GPGGA,003755.000,3859.7004,N,07656.6496,W,1,08,1.12,61.5,M,-33.5,M,,*61
20:36:38, 1679862998, 38.99501, -76.94416, 61.50, 8, 0, 1, 0, 17.14, 100907.54, -226.16, 61.50, 0.03, 0.00, 0.00, 0.63, 0.63, 0.44, 1.99, 9.11, 806.00, 141.68, 0, 4294967295, 4294967295, 0, 0, 0, 0, 0, 0, 0, 0, 0, 0
$GPGGA,003756.000,3859.7004,N,07656.6496,W,1,08,1.12,61.6,M,-33.5,M,,*61
20:36:39, 1679862999, 38.99501, -76.94416, 61.60, 8, 0, 1, 0, 17.13, 100907.84, -226.18, 61.60, -0.03, 0.00, 0.10, 0.61, 0.61, -0.88, 1.47, 9.64, 799.00, 140.45, 0, 4294967295, 4294967295, 0, 0, 0, 0, 0, 0, 0, 0, 0, 0
$GPGGA,003757.000,3859.7004,N,07656.6496,W,1,08,1.12,61.6,M,-33.5,M,,*60
20:36:40, 1679863000, 38.99501, -76.94416, 61.60, 8, 0, 1, 0, 17.12, 100907.95, -226.19, 61.60, -0.01, 0.00, 0.00, 0.56, 0.56, -0.84, 1.79, 9.31, 774.00, 136.05, 0, 4294967295, 4294967295, 0, 0, 0, 0, 0, 0, 0, 0, 0, 0
$GPGGA,003758.000,3859.7004,N,07656.6495,W,1,08,1.12,61.6,M,-33.5,M,,*6C
20:36:41, 1679863001, 38.99501, -76.94415, 61.60, 8, 0, 1, 0, 17.11, 100909.61, -226.33, 61.60, -0.14, -0.02, 0.00, 0.53, 0.53, -1.17, 1.05, 9.71, 776.00, 136.41, 0, 4294967295, 4294967295, 0, 0, 0, 0, 0, 0, 0, 0, 0, 0
$GPGGA,003759.000,3859.7004,N,07656.6495,W,1,08,1.12,61.6,M,-33.5,M,,*6D
20:36:42, 1679863002, 38.99501, -76.94415, 61.60, 8, 0, 1, 0, 17.10, 100910.42, -226.40, 61.60, -0.07, -0.01, 0.00, 0.50, 0.50, -1.31, 0.46, 9.98, 799.00, 140.45, 0, 4294967295, 4294967295, 0, 0, 0, 0, 0, 0, 0, 0, 0, 0
$GPGGA,003800.000,3859.7004,N,07656.6496,W,1,08,1.12,61.6,M,-33.5,M,,*6D
20:36:43, 1679863003, 38.99501, -76.94416, 61.60, 8, 0, 1, 0, 17.08, 100907.73, -226.17, 61.60, 0.23, 0.03, 0.00, 0.47, 0.47, -0.61, 0.59, 10.15, 810.00, 142.38, 0, 4294967295, 4294967295, 0, 0, 0, 0, 0, 0, 0, 0, 0, 0
$GPGGA,003801.000,3859.7004,N,07656.6495,W,1,10,0.97,61.6,M,-33.5,M,,*6A
20:36:44, 1679863004, 38.99501, -76.94415, 61.60, 10, 0, 1, 0, 17.08, 100905.85, -226.01, 61.60, 0.16, 0.03, 0.00, 0.45, 0.45, -1.15, 1.03, 9.39, 741.00, 130.25, 0, 4294967295, 4294967295, 0, 0, 0, 0, 0, 0, 0, 0, 0, 0
$GPGGA,003802.000,3859.7004,N,07656.6495,W,1,10,0.97,61.6,M,-33.5,M,,*69
20:36:45, 1679863005, 38.99501, -76.94415, 61.60, 10, 0, 1, 0, 17.07, 100907.77, -226.17, 61.60, -0.16, -0.02, 0.00, 0.42, 0.42, -0.70, 0.64, 10.34, 792.00, 139.22, 0, 4294967295, 4294967295, 0, 0, 0, 0, 0, 0, 0, 0, 0, 0
$GPGGA,003803.000,3859.7004,N,07656.6495,W,1,10,0.97,61.6,M,-33.5,M,,*68
20:36:46, 1679863006, 38.99501, -76.94415, 61.60, 10, 0, 1, 0, 17.05, 100907.05, -226.11, 61.60, 0.06, 0.01, 0.00, 0.40, 0.40, -0.47, 0.25, 10.07, 828.00, 145.55, 0, 4294967295, 4294967295, 0, 0, 0, 0, 0, 0, 0, 0, 0, 0
$GPGGA,003804.000,3859.7004,N,07656.6495,W,1,10,0.97,61.6,M,-33.5,M,,*6F
20:36:47, 1679863007, 38.99501, -76.94415, 61.60, 10, 0, 1, 0, 17.04, 100906.23, -226.05, 61.60, 0.07, 0.02, 0.00, 0.37, 0.37, -0.68, 0.61, 9.61, 773.00, 135.88, 0, 4294967295, 4294967295, 0, 0, 0, 0, 0, 0, 0, 0, 0, 0
$GPGGA,003805.000,3859.7004,N,07656.6495,W,1,10,0.97,61.6,M,-33.5,M,,*6E
20:36:48, 1679863008, 38.99501, -76.94415, 61.60, 10, 0, 1, 0, 17.01, 100905.95, -226.02, 61.60, 0.02, 0.02, 0.00, 0.35, 0.35, -0.29, 0.92, 10.07, 782.00, 137.46, 0, 4294967295, 4294967295, 0, 0, 0, 0, 0, 0, 0, 0, 0, 0
$GPGGA,003806.000,3859.7004,N,07656.6495,W,1,10,0.97,61.6,M,-33.5,M,,*6D
20:36:49, 1679863009, 38.99501, -76.94415, 61.60, 10, 0, 1, 0, 17.00, 100906.00, -226.03, 61.60, -0.00, 0.01, 0.00, 0.33, 0.33, -0.01, 0.26, 9.72, 826.00, 145.20, 0, 4294967295, 4294967295, 0, 0, 0, 0, 0, 0, 0, 0, 0, 0
$GPGGA,003807.000,3859.7004,N,07656.6495,W,1,10,1.12,61.6,M,-33.5,M,,*60
20:36:50, 1679863010, 38.99501, -76.94416, 61.50, 10, 0, 1, 0, 17.00, 100907.98, -226.19, 61.50, -0.17, -0.02, -0.10, 0.30, 0.30, -1.22, 0.02, 10.64, 818.00, 143.79, 0, 4294967295, 4294967295, 0, 0, 0, 0, 0, 0, 0, 0, 0, 0
$GPGGA,003809.000,3859.7004,N,07656.6495,W,1,10,1.12,61.5,M,-33.5,M,,*6D
20:36:51, 1679863011, 38.99501, -76.94415, 61.50, 10, 0, 1, 0, 17.00, 100905.81, -226.01, 61.50, 0.18, 0.04, 0.00, 0.29, 0.29, -1.15, 0.83, 8.94, 819.00, 143.96, 0, 4294967295, 4294967295, 0, 0, 0, 0, 0, 0, 0, 0, 0, 0
$GPGGA,003810.000,3859.7004,N,07656.6495,W,1,10,1.12,61.5,M,-33.5,M,,*65
20:36:52, 1679863012, 38.99501, -76.94415, 61.50, 10, 0, 1, 0, 17.00, 100907.77, -226.18, 61.50, -0.17, -0.02, 0.00, 0.27, 0.27, -0.66, 0.60, 9.85, 780.00, 137.11, 0, 4294967295, 4294967295, 0, 0, 0, 0, 0, 0, 0, 0, 0, 0
$GPGGA,003811.000,3859.7004,N,07656.6495,W,1,10,1.12,61.5,M,-33.5,M,,*64
20:36:53, 1679863013, 38.99501, -76.94415, 61.50, 10, 0, 1, 0, 16.98, 100908.23, -226.21, 61.50, -0.04, -0.00, 0.00, 0.26, 0.26, -0.99, 0.51, 9.15, 783.00, 137.64, 0, 4294967295, 4294967295, 0, 0, 0, 0, 0, 0, 0, 0, 0, 0
$GPGGA,003812.000,3859.7004,N,07656.6495,W,1,10,1.12,61.5,M,-33.5,M,,*67
20:36:54, 1679863014, 38.99501, -76.94415, 61.50, 10, 0, 1, 0, 16.98, 100907.72, -226.17, 61.50, 0.04, 0.01, 0.00, 0.24, 0.24, -0.79, 0.99, 9.71, 812.00, 142.73, 0, 4294967295, 4294967295, 0, 0, 0, 0, 0, 0, 0, 0, 0, 0
$GPGGA,003813.000,3859.7004,N,07656.6495,W,1,10,1.12,61.5,M,-33.5,M,,*66
20:36:55, 1679863015, 38.99501, -76.94415, 61.50, 10, 0, 1, 0, 16.97, 100907.24, -226.13, 61.50, 0.04, 0.01, 0.00, 0.23, 0.23, -1.40, 0.15, 10.30, 812.00, 142.73, 0, 4294967295, 4294967295, 0, 0, 0, 0, 0, 0, 0, 0, 0, 0
$GPGGA,003814.000,3859.7004,N,07656.6495,W,1,10,1.12,61.5,M,-33.5,M,,*61
20:36:56, 1679863016, 38.99501, -76.94415, 61.50, 10, 0, 1, 0, 16.96, 100906.23, -226.05, 61.50, 0.09, 0.02, 0.00, 0.22, 0.22, -0.53, 0.28, 9.81, 787.00, 138.34, 0, 4294967295, 4294967295, 0, 0, 0, 0, 0, 0, 0, 0, 0, 0
$GPGGA,003815.000,3859.7004,N,07656.6495,W,1,10,1.12,61.5,M,-33.5,M,,*60
20:36:57, 1679863017, 38.99501, -76.94415, 61.50, 10, 0, 1, 0, 16.94, 100904.03, -225.86, 61.50, 0.19, 0.03, 0.00, 0.20, 0.20, -1.74, 0.84, 10.07, 741.00, 130.25, 0, 4294967295, 4294967295, 0, 0, 0, 0, 0, 0, 0, 0, 0, 0
$GPGGA,003816.000,3859.7004,N,07656.6495,W,1,10,0.97,61.5,M,-33.5,M,,*6F
20:36:58, 1679863018, 38.99501, -76.94415, 61.50, 10, 0, 1, 0, 16.93, 100907.50, -226.15, 61.50, -0.29, -0.04, 0.00, 0.19, 0.19, -1.95, 1.35, 9.62, 798.00, 140.27, 0, 4294967295, 4294967295, 0, 0, 0, 0, 0, 0, 0, 0, 0, 0
$GPGGA,003817.000,3859.7004,N,07656.6494,W,1,10,0.97,61.5,M,-33.5,M,,*6F
20:36:59, 1679863019, 38.99501, -76.94415, 61.50, 10, 0, 1, 0, 16.93, 100908.67, -226.25, 61.50, -0.10, -0.01, 0.00, 0.18, 0.18, -4.89, 0.96, 9.68, 761.00, 133.77, 0, 4294967295, 4294967295, 0, 0, 0, 0, 0, 0, 0, 0, 0, 0
$GPGGA,003818.000,3859.7004,N,07656.6494,W,1,10,1.12,61.5,M,-33.5,M,,*6C
20:37:00, 1679863020, 38.99501, -76.94415, 61.50, 10, 0, 1, 0, 16.92, 100907.73, -226.17, 61.50, 0.08, 0.01, 0.00, 0.17, 0.17, -3.23, 0.50, 8.82, 788.00, 138.52, 0, 4294967295, 4294967295, 0, 0, 0, 0, 0, 0, 0, 0, 0, 0
$GPGGA,003819.000,3859.7004,N,07656.6494,W,1,10,1.12,61.5,M,-33.5,M,,*6D
20:37:02, 1679863022, 38.99501, -76.94415, 61.50, 10, 0, 1, 0, 16.90, 100905.50, -225.98, 61.50, 0.09, 0.02, 0.00, 0.16, 0.16, -0.61, 0.43, 8.61, 789.00, 138.69, 0, 4294967295, 4294967295, 0, 0, 0, 0, 0, 0, 0, 0, 0, 0
$GPGGA,003820.000,3859.7004,N,07656.6494,W,1,10,1.12,61.5,M,-33.5,M,,*67
20:37:03, 1679863023, 38.99501, -76.94415, 61.50, 10, 0, 1, 0, 16.91, 100908.38, -226.23, 61.50, -0.24, -0.04, 0.00, 0.15, 0.15, -2.14, 0.91, 10.27, 793.00, 139.39, 0, 4294967295, 4294967295, 0, 0, 0, 0, 0, 0, 0, 0, 0, 0
$GPGGA,003821.000,3859.7004,N,07656.6494,W,1,10,1.12,61.5,M,-33.5,M,,*66
20:37:04, 1679863024, 38.99501, -76.94415, 61.50, 10, 0, 1, 0, 16.90, 100908.81, -226.26, 61.50, -0.04, -0.02, 0.00, 0.14, 0.14, -2.66, 0.67, 8.54, 818.00, 143.79, 0, 4294967295, 4294967295, 0, 0, 0, 0, 0, 0, 0, 0, 0, 0
$GPGGA,003822.000,3859.7004,N,07656.6494,W,1,10,0.97,61.5,M,-33.5,M,,*69
20:37:05, 1679863025, 38.99501, -76.94415, 61.50, 10, 0, 1, 0, 16.89, 100904.50, -225.90, 61.50, 0.36, 0.06, 0.00, 0.13, 0.13, -2.37, -0.79, 11.17, 820.00, 144.14, 0, 4294967295, 4294967295, 0, 0, 0, 0, 0, 0, 0, 0, 0, 0
$GPGGA,003823.000,3859.7004,N,07656.6494,W,1,10,0.97,61.5,M,-33.5,M,,*68
20:37:06, 1679863026, 38.99501, -76.94415, 61.50, 10, 0, 1, 0, 16.90, 100911.41, -226.48, 61.50, -0.58, -0.09, 0.00, 0.13, 0.13, -2.15, 0.10, 9.35, 795.00, 139.75, 0, 4294967295, 4294967295, 0, 0, 0, 0, 0, 0, 0, 0, 0, 0
$GPGGA,003824.000,3859.7004,N,07656.6494,W,1,10,0.97,61.5,M,-33.5,M,,*6F
20:37:07, 1679863027, 38.99501, -76.94415, 61.50, 10, 0, 1, 0, 16.88, 100907.80, -226.18, 61.50, 0.30, 0.04, 0.00, 0.12, 0.12, -0.79, 1.23, 8.33, 782.00, 137.46, 0, 4294967295, 4294967295, 0, 0, 0, 0, 0, 0, 0, 0, 0, 0
$GPGGA,003825.000,3859.7004,N,07656.6494,W,1,11,0.93,61.5,M,-33.5,M,,*6B
20:37:08, 1679863028, 38.99501, -76.94415, 61.50, 11, 0, 1, 0, 16.86, 100905.40, -225.98, 61.50, 0.20, 0.03, 0.00, 0.11, 0.11, -2.99, 1.63, 9.79, 814.00, 143.09, 0, 4294967295, 4294967295, 0, 0, 0, 0, 0, 0, 0, 0, 0, 0
$GPGGA,003826.000,3859.7004,N,07656.6494,W,1,11,0.93,61.5,M,-33.5,M,,*68
20:37:09, 1679863029, 38.99501, -76.94415, 61.50, 11, 0, 1, 0, 16.85, 100905.97, -226.02, 61.50, -0.05, -0.01, 0.00, 0.11, 0.11, -2.30, 0.15, 9.28, 801.00, 140.80, 0, 4294967295, 4294967295, 0, 0, 0, 0, 0, 0, 0, 0, 0, 0
$GPGGA,003827.000,3859.7004,N,07656.6494,W,1,11,0.93,61.5,M,-33.5,M,,*69
20:37:10, 1679863030, 38.99501, -76.94415, 61.50, 11, 0, 1, 0, 16.84, 100904.89, -225.93, 61.50, 0.09, 0.02, 0.00, 0.10, 0.10, -1.60, 1.08, 9.80, 791.00, 139.04, 0, 4294967295, 4294967295, 0, 0, 0, 0, 0, 0, 0, 0, 0, 0
$GPGGA,003828.000,3859.7004,N,07656.6494,W,1,11,0.93,61.5,M,-33.5,M,,*66
20:37:11, 1679863031, 38.99501, -76.94415, 61.50, 11, 0, 1, 0, 16.84, 100906.16, -226.04, 61.50, -0.11, -0.02, 0.00, 0.09, 0.09, -0.53, 1.84, 10.95, 824.00, 144.84, 0, 4294967295, 4294967295, 0, 0, 0, 0, 0, 0, 0, 0, 0, 0
$GPGGA,003829.000,3859.7004,N,07656.6494,W,1,11,0.93,61.5,M,-33.5,M,,*67
20:37:12, 1679863032, 38.99501, -76.94415, 61.50, 11, 0, 1, 0, 16.84, 100905.31, -225.97, 61.50, 0.07, 0.02, 0.00, 0.09, 0.09, -2.12, 2.38, 9.70, 825.00, 145.02, 0, 4294967295, 4294967295, 0, 0, 0, 0, 0, 0, 0, 0, 0, 0
$GPGGA,003830.000,3859.7004,N,07656.6494,W,1,11,0.93,61.5,M,-33.5,M,,*6F
20:37:13, 1679863033, 38.99501, -76.94415, 61.50, 11, 0, 1, 0, 16.85, 100906.95, -226.11, 61.50, -0.14, -0.02, 0.00, 0.08, 0.08, -1.09, 2.35, 9.19, 816.00, 143.44, 0, 4294967295, 4294967295, 0, 0, 0, 0, 0, 0, 0, 0, 0, 0
$GPGGA,003831.000,3859.7004,N,07656.6494,W,1,11,0.93,61.5,M,-33.5,M,,*6E
20:37:14, 1679863034, 38.99501, -76.94415, 61.50, 11, 0, 1, 0, 16.85, 100908.12, -226.20, 61.50, -0.10, -0.02, 0.00, 0.08, 0.08, -0.69, 1.99, 9.53, 795.00, 139.75, 0, 4294967295, 4294967295, 0, 0, 0, 0, 0, 0, 0, 0, 0, 0
$GPGGA,003833.000,3859.7004,N,07656.6494,W,1,11,0.93,61.5,M,-33.5,M,,*6C
20:37:15, 1679863035, 38.99501, -76.94415, 61.50, 11, 0, 1, 0, 16.84, 100906.20, -226.04, 61.50, 0.16, 0.02, 0.00, 0.07, 0.07, -1.34, 1.14, 10.53, 767.00, 134.82, 0, 4294967295, 4294967295, 0, 0, 0, 0, 0, 0, 0, 0, 0, 0
$GPGGA,003834.000,3859.7004,N,07656.6494,W,1,11,0.93,61.5,M,-33.5,M,,*6B
20:37:16, 1679863036, 38.99501, -76.94415, 61.50, 11, 0, 1, 0, 16.83, 100904.55, -225.90, 61.50, 0.14, 0.02, 0.00, 0.07, 0.07, 1.62, 2.35, 10.17, 774.00, 136.05, 0, 4294967295, 4294967295, 0, 0, 0, 0, 0, 0, 0, 0, 0, 0
$GPGGA,003835.000,3859.7004,N,07656.6494,W,1,11,0.93,61.6,M,-33.5,M,,*69
20:37:17, 1679863037, 38.99501, -76.94415, 61.60, 11, 0, 1, 0, 16.80, 100901.45, -225.64, 61.60, 0.26, 0.05, 0.10, 0.08, 0.08, -1.47, 0.35, 10.46, 760.00, 133.59, 0, 4294967295, 4294967295, 0, 0, 0, 0, 0, 0, 0, 0, 0, 0
$GPGGA,003836.000,3859.7004,N,07656.6494,W,1,11,0.93,61.6,M,-33.5,M,,*6A
20:37:18, 1679863038, 38.99501, -76.94415, 61.60, 11, 0, 1, 0, 16.80, 100901.88, -225.68, 61.60, -0.04, 0.00, 0.00, 0.06, 0.06, -2.09, 1.80, 8.61, 787.00, 138.34, 0, 4294967295, 4294967295, 0, 0, 0, 0, 0, 0, 0, 0, 0, 0
$GPGGA,003837.000,3859.7004,N,07656.6494,W,1,11,0.84,61.6,M,-33.5,M,,*6D
20:37:19, 1679863039, 38.99501, -76.94415, 61.60, 11, 0, 1, 0, 16.78, 100895.92, -225.18, 61.60, 0.50, 0.10, 0.00, 0.06, 0.06, 0.38, 2.95, 9.39, 789.00, 138.69, 0, 4294967295, 4294967295, 0, 0, 0, 0, 0, 0, 0, 0, 0, 0
$GPGGA,003838.000,3859.7005,N,07656.6493,W,1,11,0.84,61.7,M,-33.5,M,,*65
20:37:20, 1679863040, 38.99501, -76.94415, 61.70, 11, 0, 1, 0, 16.77, 100898.29, -225.38, 61.70, -0.20, -0.00, 0.10, 0.07, 0.07, 0.45, 0.40, 9.78, 774.00, 136.05, 0, 4294967295, 4294967295, 0, 0, 0, 0, 0, 0, 0, 0, 0, 0
$GPGGA,003839.000,3859.7005,N,07656.6492,W,1,11,0.84,61.7,M,-33.5,M,,*65
20:37:21, 1679863041, 38.99501, -76.94415, 61.70, 11, 0, 1, 0, 16.76, 100897.52, -225.31, 61.70, 0.06, 0.04, 0.00, 0.06, 0.06, 0.24, 2.51, 9.23, 808.00, 142.03, 0, 4294967295, 4294967295, 0, 0, 0, 0, 0, 0, 0, 0, 0, 0
$GPGGA,003840.000,3859.7005,N,07656.6492,W,1,11,0.84,61.8,M,-33.5,M,,*64
20:37:22, 1679863042, 38.99501, -76.94415, 61.80, 11, 0, 1, 0, 16.77, 100898.89, -225.43, 61.80, -0.12, 0.01, 0.10, 0.07, 0.07, 0.86, 2.41, 9.51, 781.00, 137.29, 0, 4294967295, 4294967295, 0, 0, 0, 0, 0, 0, 0, 0, 0, 0
$GPGGA,003841.000,3859.7005,N,07656.6492,W,1,11,0.93,61.8,M,-33.5,M,,*63
20:37:23, 1679863043, 38.99501, -76.94415, 61.80, 11, 0, 1, 0, 16.77, 100898.00, -225.35, 61.80, 0.07, 0.04, 0.00, 0.06, 0.06, 0.12, 2.13, 9.73, 797.00, 140.10, 0, 4294967295, 4294967295, 0, 0, 0, 0, 0, 0, 0, 0, 0, 0
$GPGGA,003842.000,3859.7005,N,07656.6492,W,1,11,0.93,61.8,M,-33.5,M,,*60
20:37:25, 1679863045, 38.99501, -76.94415, 61.80, 11, 0, 1, 0, 16.76, 100903.72, -225.83, 61.80, -0.24, -0.01, 0.00, 0.05, 0.05, 0.36, 1.91, 9.81, 795.00, 139.75, 0, 4294967295, 4294967295, 0, 0, 0, 0, 0, 0, 0, 0, 0, 0
$GPGGA,003843.000,3859.7005,N,07656.6492,W,1,11,0.93,61.8,M,-33.5,M,,*61
20:37:26, 1679863046, 38.99501, -76.94415, 61.80, 11, 0, 1, 0, 16.76, 100905.44, -225.98, 61.80, -0.14, -0.01, 0.00, 0.05, 0.05, -1.69, 0.77, 9.73, 795.00, 139.75, 0, 4294967295, 4294967295, 0, 0, 0, 0, 0, 0, 0, 0, 0, 0
$GPGGA,003844.000,3859.7005,N,07656.6492,W,1,11,0.93,61.8,M,-33.5,M,,*66
20:37:27, 1679863047, 38.99501, -76.94415, 61.80, 11, 0, 1, 0, 16.77, 100914.89, -226.77, 61.80, -0.80, -0.12, 0.00, 0.05, 0.05, 1.30, 1.81, 9.74, 798.00, 140.27, 0, 4294967295, 4294967295, 0, 0, 0, 0, 0, 0, 0, 0, 0, 0
$GPGGA,003845.000,3859.7005,N,07656.6492,W,1,11,0.84,61.7,M,-33.5,M,,*6E
20:37:28, 1679863048, 38.99501, -76.94415, 61.70, 11, 0, 1, 0, 16.76, 100915.85, -226.85, 61.70, -0.08, -0.03, -0.10, 0.03, 0.03, -0.60, 1.73, 9.51, 803.00, 141.15, 0, 4294967295, 4294967295, 0, 0, 0, 0, 0, 0, 0, 0, 0, 0
$GPGGA,003846.000,3859.7005,N,07656.6494,W,1,11,0.84,61.6,M,-33.5,M,,*6A
20:37:29, 1679863049, 38.99501, -76.94415, 61.60, 11, 0, 1, 0, 16.76, 100917.04, -226.95, 61.60, -0.10, -0.04, -0.10, 0.02, 0.02, 0.57, -0.16, 10.21, 821.00, 144.32, 0, 4294967295, 4294967295, 0, 0, 0, 0, 0, 0, 0, 0, 0, 0
$GPGGA,003848.000,3859.7006,N,07656.6496,W,1,11,0.93,61.5,M,-33.5,M,,*60
20:37:30, 1679863050, 38.99501, -76.94416, 61.50, 11, 0, 1, 0, 16.76, 100918.45, -227.07, 61.50, -0.12, -0.05, -0.10, 0.02, 0.02, 0.68, 0.23, 10.36, 817.00, 143.61, 0, 4294967295, 4294967295, 0, 0, 0, 0, 0, 0, 0, 0, 0, 0
$GPGGA,003849.000,3859.7006,N,07656.6496,W,1,11,0.93,61.5,M,-33.5,M,,*61
20:37:31, 1679863051, 38.99501, -76.94416, 61.50, 11, 0, 1, 0, 16.75, 100915.20, -226.80, 61.50, 0.27, 0.00, 0.00, 0.03, 0.03, 0.62, 0.37, 9.77, 797.00, 140.10, 0, 4294967295, 4294967295, 0, 0, 0, 0, 0, 0, 0, 0, 0, 0
$GPGGA,003850.000,3859.7006,N,07656.6497,W,1,11,0.93,61.4,M,-33.5,M,,*69
20:37:32, 1679863052, 38.99501, -76.94416, 61.40, 11, 0, 1, 0, 16.76, 100918.34, -227.06, 61.40, -0.26, -0.08, -0.10, 0.01, 0.01, 0.23, 0.65, 9.45, 817.00, 143.61, 0, 4294967295, 4294967295, 0, 0, 0, 0, 0, 0, 0, 0, 0, 0
$GPGGA,003851.000,3859.7006,N,07656.6497,W,1,11,0.93,61.4,M,-33.5,M,,*68
20:37:33, 1679863053, 38.99501, -76.94416, 61.40, 11, 0, 1, 0, 16.76, 100920.55, -227.25, 61.40, -0.19, -0.06, 0.00, 0.02, 0.02, 0.85, 0.11, 9.57, 775.00, 136.23, 0, 4294967295, 4294967295, 0, 0, 0, 0, 0, 0, 0, 0, 0, 0
$GPGGA,003852.000,3859.7006,N,07656.6497,W,1,11,0.93,61.4,M,-33.5,M,,*6B
20:37:34, 1679863054, 38.99501, -76.94416, 61.40, 11, 0, 1, 0, 16.77, 100917.56, -227.00, 61.40, 0.25, 0.00, 0.00, 0.02, 0.02, 0.76, -0.39, 9.78, 795.00, 139.75, 0, 4294967295, 4294967295, 0, 0, 0, 0, 0, 0, 0, 0, 0, 0
$GPGGA,003853.000,3859.7006,N,07656.6497,W,1,11,0.93,61.4,M,-33.5,M,,*6A
20:37:35, 1679863055, 38.99501, -76.94416, 61.40, 11, 0, 1, 0, 16.77, 100919.73, -227.18, 61.40, -0.18, -0.06, 0.00, 0.02, 0.02, 0.55, -0.20, 10.18, 786.00, 138.16, 0, 4294967295, 4294967295, 0, 0, 0, 0, 0, 0, 0, 0, 0, 0
$GPGGA,003854.000,3859.7006,N,07656.6497,W,1,11,0.93,61.3,M,-33.5,M,,*6A
20:37:36, 1679863056, 38.99501, -76.94416, 61.30, 11, 0, 1, 0, 16.78, 100919.18, -227.13, 61.30, 0.05, -0.03, -0.10, -0.00, -0.00, 0.80, -0.52, 9.05, 780.00, 137.11, 0, 4294967295, 4294967295, 0, 0, 0, 0, 0, 0, 0, 0, 0, 0
$GPGGA,003855.000,3859.7006,N,07656.6497,W,1,11,0.93,61.3,M,-33.5,M,,*6B
20:37:37, 1679863057, 38.99501, -76.94416, 61.30, 11, 0, 1, 0, 16.78, 100919.18, -227.13, 61.30, 0.00, -0.04, 0.00, 0.01, 0.01, 0.58, -0.22, 9.80, 828.00, 145.55, 0, 4294967295, 4294967295, 0, 0, 0, 0, 0, 0, 0, 0, 0, 0
$GPGGA,003856.000,3859.7006,N,07656.6497,W,1,11,0.93,61.3,M,-33.5,M,,*68
20:37:39, 1679863059, 38.99501, -76.94416, 61.30, 11, 0, 1, 0, 16.78, 100916.91, -226.94, 61.30, 0.09, -0.02, 0.00, 0.01, 0.01, 0.10, 0.04, 10.09, 814.00, 143.09, 0, 4294967295, 4294967295, 0, 0, 0, 0, 0, 0, 0, 0, 0, 0
$GPGGA,003857.000,3859.7006,N,07656.6497,W,1,11,0.93,61.3,M,-33.5,M,,*69
20:37:40, 1679863060, 38.99501, -76.94416, 61.30, 11, 0, 1, 0, 16.78, 100920.09, -227.21, 61.30, -0.27, -0.07, 0.00, 0.01, 0.01, 0.37, 0.45, 9.80, 791.00, 139.04, 0, 4294967295, 4294967295, 0, 0, 0, 0, 0, 0, 0, 0, 0, 0
$GPGGA,003858.000,3859.7006,N,07656.6497,W,1,11,0.93,61.3,M,-33.5,M,,*66
20:37:41, 1679863061, 38.99501, -76.94416, 61.30, 11, 0, 1, 0, 16.78, 100917.87, -227.02, 61.30, 0.19, -0.00, 0.00, 0.01, 0.01, 0.09, 1.03, 9.84, 811.00, 142.56, 0, 4294967295, 4294967295, 0, 0, 0, 0, 0, 0, 0, 0, 0, 0
$GPGGA,003859.000,3859.7006,N,07656.6497,W,1,11,0.93,61.3,M,-33.5,M,,*67
20:37:42, 1679863062, 38.99501, -76.94416, 61.30, 11, 0, 1, 0, 16.77, 100913.87, -226.69, 61.30, 0.34, 0.03, 0.00, 0.01, 0.01, 0.77, 1.76, 11.13, 793.00, 139.39, 0, 4294967295, 4294967295, 0, 0, 0, 0, 0, 0, 0, 0, 0, 0
$GPGGA,003900.000,3859.7007,N,07656.6497,W,1,11,0.84,61.3,M,-33.5,M,,*6D
20:37:43, 1679863063, 38.99501, -76.94416, 61.30, 11, 0, 1, 0, 16.75, 100901.31, -225.63, 61.30, 1.05, 0.16, 0.00, 0.01, 0.01, -0.53, 4.05, 7.73, 767.00, 134.82, 0, 4294967295, 4294967295, 0, 0, 0, 0, 0, 0, 0, 0, 0, 0
$GPGGA,003901.000,3859.7007,N,07656.6497,W,1,10,0.96,61.3,M,-33.5,M,,*6E
20:37:44, 1679863064, 38.99501, -76.94416, 61.30, 10, 0, 1, 0, 16.74, 100901.27, -225.63, 61.30, 0.00, 0.02, 0.00, 0.01, 0.01, 1.45, 4.39, 8.28, 787.00, 138.34, 0, 4294967295, 4294967295, 0, 0, 0, 0, 0, 0, 0, 0, 0, 0
$GPGGA,003902.000,3859.7007,N,07656.6496,W,1,10,0.96,61.4,M,-33.5,M,,*6B
20:37:45, 1679863065, 38.99501, -76.94416, 61.40, 10, 0, 1, 0, 16.75, 100900.05, -225.53, 61.40, 0.10, 0.04, 0.10, 0.02, 0.02, 0.50, 4.22, 8.33, 837.00, 147.13, 0, 4294967295, 4294967295, 0, 0, 0, 0, 0, 0, 0, 0, 0, 0
$GPGGA,003903.000,3859.7008,N,07656.6496,W,1,10,0.96,61.4,M,-33.5,M,,*65
20:37:46, 1679863066, 38.99501, -76.94416, 61.40, 10, 0, 1, 0, 16.73, 100898.54, -225.40, 61.40, 0.13, 0.06, 0.00, 0.01, 0.01, 0.34, 3.46, 8.95, 815.00, 143.26, 0, 4294967295, 4294967295, 0, 0, 0, 0, 0, 0, 0, 0, 0, 0
$GPGGA,003904.000,3859.7008,N,07656.6496,W,1,10,0.96,61.5,M,-33.5,M,,*63
20:37:47, 1679863067, 38.99501, -76.94416, 61.50, 10, 0, 1, 0, 16.72, 100899.44, -225.48, 61.50, -0.08, 0.04, 0.10, 0.02, 0.02, -1.01, 3.88, 8.53, 816.00, 143.44, 0, 4294967295, 4294967295, 0, 0, 0, 0, 0, 0, 0, 0, 0, 0
$GPGGA,003905.000,3859.7008,N,07656.6496,W,1,10,0.96,61.5,M,-33.5,M,,*62
20:37:48, 1679863068, 38.99501, -76.94416, 61.50, 10, 0, 1, 0, 16.72, 100897.43, -225.31, 61.50, 0.17, 0.08, 0.00, 0.01, 0.01, 0.15, 2.29, 10.06, 794.00, 139.57, 0, 4294967295, 4294967295, 0, 0, 0, 0, 0, 0, 0, 0, 0, 0
$GPGGA,003906.000,3859.7008,N,07656.6496,W,1,11,0.93,61.6,M,-33.5,M,,*66
20:37:49, 1679863069, 38.99501, -76.94416, 61.60, 11, 0, 1, 0, 16.70, 100893.70, -224.99, 61.60, 0.31, 0.09, 0.10, 0.03, 0.03, 1.04, 2.48, 9.56, 829.00, 145.72, 0, 4294967295, 4294967295, 0, 0, 0, 0, 0, 0, 0, 0, 0, 0
$GPGGA,003907.000,3859.7008,N,07656.6497,W,1,11,0.93,61.6,M,-33.5,M,,*66
20:37:50, 1679863070, 38.99501, -76.94416, 61.60, 11, 0, 1, 0, 16.70, 100897.22, -225.29, 61.60, -0.30, 0.00, 0.00, 0.02, 0.02, 0.43, 3.11, 9.04, 819.00, 143.96, 0, 4294967295, 4294967295, 0, 0, 0, 0, 0, 0, 0, 0, 0, 0
$GPGGA,003908.000,3859.7008,N,07656.6497,W,1,11,0.93,61.6,M,-33.5,M,,*69
20:37:51, 1679863071, 38.99501, -76.94416, 61.60, 11, 0, 1, 0, 16.70, 100899.27, -225.46, 61.60, -0.17, 0.02, 0.00, 0.01, 0.01, -0.32, 3.17, 8.46, 838.00, 147.30, 0, 4294967295, 4294967295, 0, 0, 0, 0, 0, 0, 0, 0, 0, 0
$GPGGA,003909.000,3859.7008,N,07656.6497,W,1,11,0.93,61.7,M,-33.5,M,,*69
20:37:52, 1679863072, 38.99501, -76.94416, 61.70, 11, 0, 1, 0, 16.69, 100897.98, -225.35, 61.70, 0.11, 0.06, 0.10, 0.03, 0.03, 0.55, 1.81, 10.20, 801.00, 140.80, 0, 4294967295, 4294967295, 0, 0, 0, 0, 0, 0, 0, 0, 0, 0
$GPGGA,003911.000,3859.7008,N,07656.6497,W,1,10,0.96,61.7,M,-33.5,M,,*64
20:37:53, 1679863073, 38.99501, -76.94416, 61.70, 10, 0, 1, 0, 16.68, 100901.72, -225.67, 61.70, -0.31, -0.01, 0.00, 0.02, 0.02, 1.18, 1.76, 9.68, 817.00, 143.61, 0, 4294967295, 4294967295, 0, 0, 0, 0, 0, 0, 0, 0, 0, 0
$GPGGA,003912.000,3859.7008,N,07656.6497,W,1,11,0.93,61.7,M,-33.5,M,,*63
20:37:54, 1679863074, 38.99501, -76.94416, 61.70, 11, 0, 1, 0, 16.67, 100897.73, -225.33, 61.70, 0.33, 0.08, 0.00, 0.02, 0.02, 1.61, 1.70, 10.06, 810.00, 142.38, 0, 4294967295, 4294967295, 0, 0, 0, 0, 0, 0, 0, 0, 0, 0
$GPGGA,003913.000,3859.7008,N,07656.6497,W,1,10,0.96,61.7,M,-33.5,M,,*66
20:37:55, 1679863075, 38.99501, -76.94416, 61.70, 10, 0, 1, 0, 16.66, 100899.88, -225.51, 61.70, -0.18, -0.01, 0.00, 0.02, 0.02, 1.06, 1.67, 9.21, 794.00, 139.57, 0, 4294967295, 4294967295, 0, 0, 0, 0, 0, 0, 0, 0, 0, 0
$GPGGA,003914.000,3859.7008,N,07656.6497,W,1,10,0.96,61.7,M,-33.5,M,,*61
20:37:56, 1679863076, 38.99501, -76.94416, 61.70, 10, 0, 1, 0, 16.65, 100896.48, -225.23, 61.70, 0.29, 0.07, 0.00, 0.02, 0.02, 0.00, 1.55, 9.67, 842.00, 148.01, 0, 4294967295, 4294967295, 0, 0, 0, 0, 0, 0, 0, 0, 0, 0
$GPGGA,003915.000,3859.7008,N,07656.6497,W,1,10,0.96,61.7,M,-33.5,M,,*60
20:37:57, 1679863077, 38.99501, -76.94416, 61.70, 10, 0, 1, 0, 16.65, 100896.38, -225.22, 61.70, 0.01, 0.03, 0.00, 0.02, 0.02, 0.38, 1.52, 9.85, 811.00, 142.56, 0, 4294967295, 4294967295, 0, 0, 0, 0, 0, 0, 0, 0, 0, 0
$GPGGA,003916.000,3859.7008,N,07656.6497,W,1,11,0.93,61.7,M,-33.5,M,,*67
20:37:58, 1679863078, 38.99501, -76.94416, 61.70, 11, 0, 1, 0, 16.65, 100898.31, -225.38, 61.70, -0.16, 0.00, 0.00, 0.01, 0.01, -0.03, 1.40, 9.68, 776.00, 136.41, 0, 4294967295, 4294967295, 0, 0, 0, 0, 0, 0, 0, 0, 0, 0
$GPGGA,003917.000,3859.7008,N,07656.6497,W,1,10,0.96,61.7,M,-33.5,M,,*62
20:37:59, 1679863079, 38.99501, -76.94416, 61.70, 10, 0, 1, 0, 16.63, 100899.30, -225.46, 61.70, -0.08, 0.02, 0.00, 0.01, 0.01, 0.06, 1.41, 9.77, 788.00, 138.52, 0, 4294967295, 4294967295, 0, 0, 0, 0, 0, 0, 0, 0, 0, 0
$GPGGA,003918.000,3859.7008,N,07656.6497,W,1,10,0.96,61.7,M,-33.5,M,,*6D
20:38:00, 1679863080, 38.99501, -76.94416, 61.70, 10, 0, 1, 0, 16.62, 100897.16, -225.28, 61.70, 0.18, 0.05, 0.00, 0.01, 0.01, -0.62, 0.73, 10.21, 777.00, 136.58, 0, 4294967295, 4294967295, 0, 0, 0, 0, 0, 0, 0, 0, 0, 0
$GPGGA,003919.000,3859.7008,N,07656.6497,W,1,10,0.96,61.7,M,-33.5,M,,*6C
20:38:01, 1679863081, 38.99501, -76.94416, 61.70, 10, 0, 1, 0, 16.62, 100902.52, -225.73, 61.70, -0.45, -0.05, 0.00, 0.01, 0.01, -0.08, 0.54, 9.77, 800.00, 140.63, 0, 4294967295, 4294967295, 0, 0, 0, 0, 0, 0, 0, 0, 0, 0
$GPGGA,003920.000,3859.7008,N,07656.6497,W,1,11,0.93,61.7,M,-33.5,M,,*62
20:38:02, 1679863082, 38.99501, -76.94416, 61.70, 11, 0, 1, 0, 16.63, 100905.68, -226.00, 61.70, -0.27, -0.04, 0.00, 0.01, 0.01, -1.92, 1.20, 10.01, 822.00, 144.49, 0, 4294967295, 4294967295, 0, 0, 0, 0, 0, 0, 0, 0, 0, 0
$GPGGA,003921.000,3859.7008,N,07656.6497,W,1,11,0.93,61.7,M,-33.5,M,,*63
20:38:03, 1679863083, 38.99501, -76.94416, 61.70, 11, 0, 1, 0, 16.63, 100903.58, -225.82, 61.70, 0.18, 0.03, 0.00, 0.01, 0.01, -1.02, 2.55, 9.22, 799.00, 140.45, 0, 4294967295, 4294967295, 0, 0, 0, 0, 0, 0, 0, 0, 0, 0
$GPGGA,003922.000,3859.7008,N,07656.6497,W,1,11,0.84,61.7,M,-33.5,M,,*66
20:38:05, 1679863085, 38.99501, -76.94416, 61.70, 11, 0, 1, 0, 16.64, 100907.91, -226.19, 61.70, -0.18, -0.03, 0.00, 0.01, 0.01, 0.31, 3.41, 8.84, 814.00, 143.09, 0, 4294967295, 4294967295, 0, 0, 0, 0, 0, 0, 0, 0, 0, 0
$GPGGA,003923.000,3859.7008,N,07656.6497,W,1,11,0.84,61.6,M,-33.5,M,,*66
20:38:06, 1679863086, 38.99501, -76.94416, 61.60, 11, 0, 1, 0, 16.64, 100908.20, -226.21, 61.60, -0.02, -0.01, -0.10, -0.01, -0.01, 0.55, 2.57, 9.39, 765.00, 134.47, 0, 4294967295, 4294967295, 0, 0, 0, 0, 0, 0, 0, 0, 0, 0
$GPGGA,003924.000,3859.7008,N,07656.6497,W,1,11,0.93,61.6,M,-33.5,M,,*67
20:38:07, 1679863087, 38.99501, -76.94416, 61.60, 11, 0, 1, 0, 16.63, 100906.69, -226.08, 61.60, 0.13, 0.01, 0.00, 0.01, 0.01, -1.01, 3.38, 9.02, 818.00, 143.79, 0, 4294967295, 4294967295, 0, 0, 0, 0, 0, 0, 0, 0, 0, 0
$GPGGA,003925.000,3859.7008,N,07656.6497,W,1,11,0.93,61.6,M,-33.5,M,,*66
20:38:08, 1679863088, 38.99501, -76.94416, 61.60, 11, 0, 1, 0, 16.63, 100901.66, -225.66, 61.60, 0.42, 0.06, 0.00, 0.01, 0.01, -0.99, 2.38, 8.67, 777.00, 136.58, 0, 4294967295, 4294967295, 0, 0, 0, 0, 0, 0, 0, 0, 0, 0
$GPGGA,003926.000,3859.7008,N,07656.6497,W,1,11,0.84,61.6,M,-33.5,M,,*63
20:38:09, 1679863089, 38.99501, -76.94416, 61.60, 11, 0, 1, 0, 16.62, 100900.96, -225.60, 61.60, 0.06, 0.02, 0.00, 0.00, 0.00, -0.57, 2.02, 10.39, 778.00, 136.76, 0, 4294967295, 4294967295, 0, 0, 0, 0, 0, 0, 0, 0, 0, 0
$GPGGA,003927.000,3859.7009,N,07656.6496,W,1,11,0.84,61.7,M,-33.5,M,,*63
20:38:10, 1679863090, 38.99502, -76.94416, 61.70, 11, 0, 1, 0, 16.61, 100896.53, -225.23, 61.70, 0.37, 0.07, 0.10, 0.02, 0.02, -0.85, 1.30, 9.16, 806.00, 141.68, 0, 4294967295, 4294967295, 0, 0, 0, 0, 0, 0, 0, 0, 0, 0
$GPGGA,003928.000,3859.7009,N,07656.6495,W,1,11,0.84,61.8,M,-33.5,M,,*60
20:38:11, 1679863091, 38.99502, -76.94415, 61.80, 11, 0, 1, 0, 16.60, 100901.96, -225.69, 61.80, -0.46, -0.05, 0.10, 0.02, 0.02, 0.90, 2.60, 12.63, 791.00, 139.04, 0, 4294967295, 4294967295, 0, 0, 0, 0, 0, 0, 0, 0, 0, 0
$GPGGA,003929.000,3859.7010,N,07656.6494,W,1,11,0.84,61.9,M,-33.5,M,,*69
20:38:12, 1679863092, 38.99502, -76.94415, 61.90, 11, 0, 1, 0, 16.60, 100902.02, -225.69, 61.90, -0.00, 0.02, 0.10, 0.03, 0.03, 0.11, 1.54, 10.34, 791.00, 139.04, 0, 4294967295, 4294967295, 0, 0, 0, 0, 0, 0, 0, 0, 0, 0
$GPGGA,003930.000,3859.7009,N,07656.6492,W,1,11,0.84,62.0,M,-33.5,M,,*65
20:38:13, 1679863093, 38.99502, -76.94415, 62.00, 11, 0, 1, 0, 16.59, 100905.38, -225.97, 62.00, -0.28, -0.03, 0.10, 0.03, 0.03, -0.34, 2.11, 9.70, 801.00, 140.80, 0, 4294967295, 4294967295, 0, 0, 0, 0, 0, 0, 0, 0, 0, 0
$GPGGA,003931.000,3859.7010,N,07656.6492,W,1,11,0.84,61.9,M,-33.5,M,,*66
20:38:14, 1679863094, 38.99502, -76.94415, 61.90, 11, 0, 1, 0, 16.59, 100902.20, -225.71, 61.90, 0.27, 0.05, -0.10, 0.00, 0.00, -0.92, 1.30, 9.41, 788.00, 138.52, 0, 4294967295, 4294967295, 0, 0, 0, 0, 0, 0, 0, 0, 0, 0
$GPGGA,003932.000,3859.7010,N,07656.6492,W,1,11,0.84,61.9,M,-33.5,M,,*65
20:38:15, 1679863095, 38.99502, -76.94415, 61.90, 11, 0, 1, 0, 16.58, 100903.97, -225.86, 61.90, -0.15, -0.01, 0.00, 0.02, 0.02, -0.03, 1.77, 10.18, 816.00, 143.44, 0, 4294967295, 4294967295, 0, 0, 0, 0, 0, 0, 0, 0, 0, 0
$GPGGA,003933.000,3859.7010,N,07656.6492,W,1,11,0.93,61.9,M,-33.5,M,,*62
20:38:16, 1679863096, 38.99502, -76.94415, 61.90, 11, 0, 1, 0, 16.58, 100901.91, -225.68, 61.90, 0.17, 0.02, 0.00, 0.02, 0.02, 0.00, 1.51, 9.69, 741.00, 130.25, 0, 4294967295, 4294967295, 0, 0, 0, 0, 0, 0, 0, 0, 0, 0
$GPGGA,003934.000,3859.7010,N,07656.6492,W,1,11,0.93,61.9,M,-33.5,M,,*65
20:38:17, 1679863097, 38.99502, -76.94415, 61.90, 11, 0, 1, 0, 16.57, 100907.08, -226.12, 61.90, -0.43, -0.06, 0.00, 0.01, 0.01, 0.72, 1.69, 9.12, 824.00, 144.84, 0, 4294967295, 4294967295, 0, 0, 0, 0, 0, 0, 0, 0, 0, 0
$GPGGA,003936.000,3859.7010,N,07656.6492,W,1,11,0.93,61.9,M,-33.5,M,,*67
20:38:18, 1679863098, 38.99502, -76.94415, 61.90, 11, 0, 1, 0, 16.57, 100902.57, -225.74, 61.90, 0.38, 0.06, 0.00, 0.01, 0.01, -0.04, 1.50, 9.62, 817.00, 143.61, 0, 4294967295, 4294967295, 0, 0, 0, 0, 0, 0, 0, 0, 0, 0
$GPGGA,003937.000,3859.7010,N,07656.6492,W,1,11,0.93,61.9,M,-33.5,M,,*66
20:38:19, 1679863099, 38.99502, -76.94415, 61.90, 11, 0, 1, 0, 16.57, 100901.86, -225.68, 61.90, 0.06, 0.02, 0.00, 0.01, 0.01, -0.03, 1.64, 9.60, 793.00, 139.39, 0, 4294967295, 4294967295, 0, 0, 0, 0, 0, 0, 0, 0, 0, 0
$GPGGA,003938.000,3859.7010,N,07656.6492,W,1,11,0.93,61.9,M,-33.5,M,,*69
20:38:20, 1679863100, 38.99502, -76.94415, 61.90, 11, 0, 1, 0, 16.57, 100903.56, -225.82, 61.90, -0.14, -0.02, 0.00, 0.01, 0.01, 0.07, 1.33, 9.64, 784.00, 137.81, 0, 4294967295, 4294967295, 0, 0, 0, 0, 0, 0, 0, 0, 0, 0
$GPGGA,003939.000,3859.7010,N,07656.6492,W,1,11,0.93,61.9,M,-33.5,M,,*68
20:38:21, 1679863101, 38.99502, -76.94415, 61.90, 11, 0, 1, 0, 16.56, 100901.06, -225.61, 61.90, 0.21, 0.04, 0.00, 0.01, 0.01, 0.62, 0.45, 10.53, 783.00, 137.64, 0, 4294967295, 4294967295, 0, 0, 0, 0, 0, 0, 0, 0, 0, 0
$GPGGA,003940.000,3859.7010,N,07656.6492,W,1,11,0.93,61.9,M,-33.5,M,,*66
20:38:22, 1679863102, 38.99502, -76.94415, 61.90, 11, 0, 1, 0, 16.55, 100907.06, -226.12, 61.90, -0.50, -0.08, 0.00, 0.01, 0.01, -0.23, 0.42, 9.26, 825.00, 145.02, 0, 4294967295, 4294967295, 0, 0, 0, 0, 0, 0, 0, 0, 0, 0
$GPGGA,003941.000,3859.7010,N,07656.6492,W,1,11,0.93,61.9,M,-33.5,M,,*67
20:38:23, 1679863103, 38.99502, -76.94415, 61.90, 11, 0, 1, 0, 16.56, 100906.11, -226.04, 61.90, 0.08, 0.02, 0.00, 0.01, 0.01, 1.24, 0.34, 11.39, 812.00, 142.73, 0, 4294967295, 4294967295, 0, 0, 0, 0, 0, 0, 0, 0, 0, 0
$GPGGA,003942.000,3859.7010,N,07656.6492,W,1,11,0.93,61.9,M,-33.5,M,,*64
20:38:24, 1679863104, 38.99502, -76.94415, 61.90, 11, 0, 1, 0, 16.56, 100912.72, -226.59, 61.90, -0.56, -0.10, 0.00, 0.01, 0.01, 0.96, 1.28, 10.70, 822.00, 144.49, 0, 4294967295, 4294967295, 0, 0, 0, 0, 0, 0, 0, 0, 0, 0
$GPGGA,003943.000,3859.7010,N,07656.6492,W,1,11,0.93,61.9,M,-33.5,M,,*65
20:38:26, 1679863106, 38.99502, -76.94415, 61.90, 11, 0, 1, 0, 16.56, 100912.95, -226.61, 61.90, -0.01, -0.03, 0.00, 0.01, 0.01, 0.61, 2.42, 8.37, 775.00, 136.23, 0, 4294967295, 4294967295, 0, 0, 0, 0, 0, 0, 0, 0, 0, 0
$GPGGA,003944.000,3859.7010,N,07656.6492,W,1,11,0.93,61.9,M,-33.5,M,,*62
20:38:27, 1679863107, 38.99502, -76.94415, 61.90, 11, 0, 1, 0, 16.55, 100908.33, -226.22, 61.90, 0.39, 0.04, 0.00, 0.01, 0.01, -0.20, 1.25, 9.78, 804.00, 141.33, 0, 4294967295, 4294967295, 0, 0, 0, 0, 0, 0, 0, 0, 0, 0
$GPGGA,003945.000,3859.7010,N,07656.6492,W,1,11,0.93,61.9,M,-33.5,M,,*63
20:38:28, 1679863108, 38.99502, -76.94415, 61.90, 11, 0, 1, 0, 16.55, 100912.92, -226.61, 61.90, -0.39, -0.09, 0.00, 0.01, 0.01, -0.10, 0.52, 8.72, 774.00, 136.05, 0, 4294967295, 4294967295, 0, 0, 0, 0, 0, 0, 0, 0, 0, 0
$GPGGA,003946.000,3859.7010,N,07656.6492,W,1,11,0.93,61.9,M,-33.5,M,,*60
20:38:29, 1679863109, 38.99502, -76.94415, 61.90, 11, 0, 1, 0, 16.56, 100906.76, -226.09, 61.90, 0.52, 0.06, 0.00, 0.01, 0.01, -0.48, 2.11, 9.23, 830.00, 145.90, 0, 4294967295, 4294967295, 0, 0, 0, 0, 0, 0, 0, 0, 0, 0
$GPGGA,003948.000,3859.7010,N,07656.6492,W,1,11,0.93,61.9,M,-33.5,M,,*6E
20:38:30, 1679863110, 38.99502, -76.94415, 61.90, 11, 0, 1, 0, 16.55, 100914.02, -226.70, 61.90, -0.61, -0.12, 0.00, 0.01, 0.01, -2.38, 2.95, 10.03, 789.00, 138.69, 0, 4294967295, 4294967295, 0, 0, 0, 0, 0, 0, 0, 0, 0, 0
$GPGGA,003949.000,3859.7010,N,07656.6492,W,1,11,0.93,61.9,M,-33.5,M,,*6F
20:38:31, 1679863111, 38.99502, -76.94415, 61.90, 11, 0, 1, 0, 16.56, 100913.14, -226.63, 61.90, 0.07, -0.01, 0.00, 0.01, 0.01, -0.82, 2.38, 10.30, 791.00, 139.04, 0, 4294967295, 4294967295, 0, 0, 0, 0, 0, 0, 0, 0, 0, 0
$GPGGA,003950.000,3859.7010,N,07656.6492,W,1,11,0.93,61.9,M,-33.5,M,,*67
20:38:32, 1679863112, 38.99502, -76.94415, 61.90, 11, 0, 1, 0, 16.56, 100913.38, -226.65, 61.90, -0.02, -0.02, 0.00, 0.01, 0.01, -1.38, 2.64, 9.23, 791.00, 139.04, 0, 4294967295, 4294967295, 0, 0, 0, 0, 0, 0, 0, 0, 0, 0
$GPGGA,003951.000,3859.7010,N,07656.6492,W,1,11,0.93,61.9,M,-33.5,M,,*66
20:38:33, 1679863113, 38.99502, -76.94415, 61.90, 11, 0, 1, 0, 16.56, 100908.19, -226.21, 61.90, 0.44, 0.04, 0.00, 0.01, 0.01, -2.14, 2.86, 8.57, 799.00, 140.45, 0, 4294967295, 4294967295, 0, 0, 0, 0, 0, 0, 0, 0, 0, 0
$GPGGA,003952.000,3859.7010,N,07656.6492,W,1,11,0.93,61.9,M,-33.5,M,,*65
20:38:34, 1679863114, 38.99502, -76.94415, 61.90, 11, 0, 1, 0, 16.56, 100911.47, -226.49, 61.90, -0.28, -0.05, 0.00, 0.01, 0.01, -3.16, 2.76, 10.36, 791.00, 139.04, 0, 4294967295, 4294967295, 0, 0, 0, 0, 0, 0, 0, 0, 0, 0
$GPGGA,003953.000,3859.7010,N,07656.6492,W,1,11,0.93,61.9,M,-33.5,M,,*64
20:38:35, 1679863115, 38.99502, -76.94415, 61.90, 11, 0, 1, 0, 16.56, 100910.27, -226.39, 61.90, 0.10, -0.01, 0.00, 0.00, 0.00, -2.61, 3.27, 8.87, 808.00, 142.03, 0, 4294967295, 4294967295, 0, 0, 0, 0, 0, 0, 0, 0, 0, 0
$GPGGA,003954.000,3859.7010,N,07656.6491,W,1,11,0.93,61.9,M,-33.5,M,,*60
20:38:36, 1679863116, 38.99502, -76.94415, 61.90, 11, 0, 1, 0, 16.56, 100914.80, -226.77, 61.90, -0.38, -0.07, 0.00, 0.00, 0.00, -3.15, 2.73, 9.96, 789.00, 138.69, 0, 4294967295, 4294967295, 0, 0, 0, 0, 0, 0, 0, 0, 0, 0
$GPGGA,003955.000,3859.7010,N,07656.6491,W,1,11,0.93,61.9,M,-33.5,M,,*61
20:38:37, 1679863117, 38.99502, -76.94415, 61.90, 11, 0, 1, 0, 16.56, 100911.49, -226.49, 61.90, 0.28, 0.03, 0.00, 0.00, 0.00, -0.75, 1.47, 9.97, 822.00, 144.49, 0, 4294967295, 4294967295, 0, 0, 0, 0, 0, 0, 0, 0, 0, 0
$GPGGA,003956.000,3859.7010,N,07656.6491,W,1,11,0.93,61.9,M,-33.5,M,,*62
20:38:38, 1679863118, 38.99502, -76.94415, 61.90, 11, 0, 1, 0, 16.56, 100907.81, -226.18, 61.90, 0.31, 0.04, 0.00, 0.00, 0.00, -0.80, 1.77, 9.77, 811.00, 142.56, 0, 4294967295, 4294967295, 0, 0, 0, 0, 0, 0, 0, 0, 0, 0
$GPGGA,003957.000,3859.7010,N,07656.6491,W,1,11,0.93,61.9,M,-33.5,M,,*63
20:38:39, 1679863119, 38.99502, -76.94415, 61.90, 11, 0, 1, 0, 16.56, 100913.05, -226.62, 61.90, -0.44, -0.09, 0.00, 0.00, 0.00, -1.20, 1.76, 9.62, 777.00, 136.58, 0, 4294967295, 4294967295, 0, 0, 0, 0, 0, 0, 0, 0, 0, 0
$GPGGA,003958.000,3859.7010,N,07656.6491,W,1,11,0.93,61.9,M,-33.5,M,,*6C
20:38:40, 1679863120, 38.99502, -76.94415, 61.90, 11, 0, 1, 0, 16.55, 100914.45, -226.74, 61.90, -0.12, -0.04, 0.00, 0.00, 0.00, -1.13, 1.55, 10.04, 792.00, 139.22, 0, 4294967295, 4294967295, 0, 0, 0, 0, 0, 0, 0, 0, 0, 0
$GPGGA,003959.000,3859.7010,N,07656.6491,W,1,11,0.93,61.9,M,-33.5,M,,*6D
20:38:41, 1679863121, 38.99502, -76.94415, 61.90, 11, 0, 1, 0, 16.54, 100913.92, -226.69, 61.90, 0.04, -0.01, 0.00, 0.00, 0.00, -3.51, 1.60, 9.29, 783.00, 137.64, 0, 4294967295, 4294967295, 0, 0, 0, 0, 0, 0, 0, 0, 0, 0
$GPGGA,004000.000,3859.7010,N,07656.6491,W,1,11,0.93,61.9,M,-33.5,M,,*6F
20:38:43, 1679863123, 38.99502, -76.94415, 61.90, 11, 0, 1, 0, 16.54, 100914.58, -226.75, 61.90, -0.03, -0.02, 0.00, 0.00, 0.00, -2.97, 0.11, 9.72, 772.00, 135.70, 0, 4294967295, 4294967295, 0, 0, 0, 0, 0, 0, 0, 0, 0, 0
$GPGGA,004001.000,3859.7010,N,07656.6491,W,1,11,0.93,61.9,M,-33.5,M,,*6E
20:38:44, 1679863124, 38.99502, -76.94415, 61.90, 11, 0, 1, 0, 16.54, 100910.23, -226.38, 61.90, 0.36, 0.04, 0.00, 0.00, 0.00, -3.59, 0.57, 9.62, 805.00, 141.50, 0, 4294967295, 4294967295, 0, 0, 0, 0, 0, 0, 0, 0, 0, 0
$GPGGA,004002.000,3859.7010,N,07656.6491,W,1,11,0.93,61.9,M,-33.5,M,,*6D
20:38:45, 1679863125, 38.99502, -76.94415, 61.90, 11, 0, 1, 0, 16.54, 100911.63, -226.50, 61.90, -0.12, -0.04, 0.00, 0.00, 0.00, -2.06, 1.64, 8.79, 760.00, 133.59, 0, 4294967295, 4294967295, 0, 0, 0, 0, 0, 0, 0, 0, 0, 0
$GPGGA,004003.000,3859.7010,N,07656.6491,W,1,11,0.93,61.9,M,-33.5,M,,*6C
20:38:46, 1679863126, 38.99502, -76.94415, 61.90, 11, 0, 1, 0, 16.54, 100908.61, -226.25, 61.90, 0.25, 0.03, 0.00, 0.00, 0.00, -1.54, 0.69, 9.45, 813.00, 142.91, 0, 4294967295, 4294967295, 0, 0, 0, 0, 0, 0, 0, 0, 0, 0
$GPGGA,004004.000,3859.7010,N,07656.6491,W,1,11,0.93,61.9,M,-33.5,M,,*6B
20:38:47, 1679863127, 38.99502, -76.94415, 61.90, 11, 0, 1, 0, 16.52, 100914.49, -226.74, 61.90, -0.49, -0.08, 0.00, 0.00, 0.00, -1.06, 1.50, 9.83, 797.00, 140.10, 0, 4294967295, 4294967295, 0, 0, 0, 0, 0, 0, 0, 0, 0, 0
$GPGGA,004005.000,3859.7010,N,07656.6491,W,1,11,0.93,61.9,M,-33.5,M,,*6A
20:38:48, 1679863128, 38.99502, -76.94415, 61.90, 11, 0, 1, 0, 16.52, 100911.98, -226.53, 61.90, 0.21, 0.02, 0.00, 0.00, 0.00, -1.27, 1.56, 9.39, 783.00, 137.64, 0, 4294967295, 4294967295, 0, 0, 0, 0, 0, 0, 0, 0, 0, 0
$GPGGA,004006.000,3859.7010,N,07656.6491,W,1,11,0.93,61.9,M,-33.5,M,,*69
20:38:49, 1679863129, 38.99502, -76.94415, 61.90, 11, 0, 1, 0, 16.51, 100911.20, -226.46, 61.90, 0.06, 0.01, 0.00, 0.00, 0.00, -1.57, 2.15, 9.41, 791.00, 139.04, 0, 4294967295, 4294967295, 0, 0, 0, 0, 0, 0, 0, 0, 0, 0
$GPGGA,004007.000,3859.7010,N,07656.6491,W,1,11,0.93,61.9,M,-33.5,M,,*68
20:38:50, 1679863130, 38.99502, -76.94415, 61.90, 11, 0, 1, 0, 16.51, 100913.89, -226.69, 61.90, -0.23, -0.05, 0.00, 0.00, 0.00, -1.75, 1.16, 9.48, 760.00, 133.59, 0, 4294967295, 4294967295, 0, 0, 0, 0, 0, 0, 0, 0, 0, 0
$GPGGA,004008.000,3859.7010,N,07656.6492,W,1,11,0.93,61.9,M,-33.5,M,,*64
20:38:51, 1679863131, 38.99502, -76.94415, 61.90, 11, 0, 1, 0, 16.50, 100915.82, -226.85, 61.90, -0.16, -0.04, 0.00, 0.00, 0.00, -1.83, 1.44, 9.71, 817.00, 143.61, 0, 4294967295, 4294967295, 0, 0, 0, 0, 0, 0, 0, 0, 0, 0
$GPGGA,004009.000,3859.7010,N,07656.6492,W,1,11,0.93,61.9,M,-33.5,M,,*65
20:38:52, 1679863132, 38.99502, -76.94415, 61.90, 11, 0, 1, 0, 16.50, 100913.78, -226.68, 61.90, 0.17, 0.01, 0.00, 0.00, 0.00, -2.20, 0.90, 9.57, 798.00, 140.27, 0, 4294967295, 4294967295, 0, 0, 0, 0, 0, 0, 0, 0, 0, 0
$GPGGA,004010.000,3859.7010,N,07656.6492,W,1,11,0.93,61.9,M,-33.5,M,,*6D
20:38:53, 1679863133, 38.99502, -76.94415, 61.90, 11, 0, 1, 0, 16.49, 100913.21, -226.63, 61.90, 0.05, 0.00, 0.00, 0.00, 0.00, -1.96, 0.46, 9.50, 815.00, 143.26, 0, 4294967295, 4294967295, 0, 0, 0, 0, 0, 0, 0, 0, 0, 0
$GPGGA,004011.000,3859.7010,N,07656.6492,W,1,11,0.93,61.9,M,-33.5,M,,*6C
20:38:54, 1679863134, 38.99502, -76.94415, 61.90, 11, 0, 1, 0, 16.49, 100913.52, -226.66, 61.90, -0.03, -0.02, 0.00, 0.00, 0.00, -2.02, 0.80, 9.22, 801.00, 140.80, 0, 4294967295, 4294967295, 0, 0, 0, 0, 0, 0, 0, 0, 0, 0
$GPGGA,004012.000,3859.7010,N,07656.6492,W,1,11,0.93,61.9,M,-33.5,M,,*6F
20:38:55, 1679863135, 38.99502, -76.94415, 61.90, 11, 0, 1, 0, 16.49, 100911.58, -226.50, 61.90, 0.16, 0.01, 0.00, 0.00, 0.00, -3.26, 1.24, 10.12, 803.00, 141.15, 0, 4294967295, 4294967295, 0, 0, 0, 0, 0, 0, 0, 0, 0, 0
$GPGGA,004013.000,3859.7010,N,07656.6492,W,1,11,0.93,61.9,M,-33.5,M,,*6E
20:38:56, 1679863136, 38.99502, -76.94415, 61.90, 11, 0, 1, 0, 16.49, 100911.41, -226.48, 61.90, 0.01, -0.00, 0.00, 0.00, 0.00, -2.47, 0.57, 9.78, 787.00, 138.34, 0, 4294967295, 4294967295, 0, 0, 0, 0, 0, 0, 0, 0, 0, 0
$GPGGA,004014.000,3859.7010,N,07656.6492,W,1,11,0.93,61.9,M,-33.5,M,,*69
20:38:57, 1679863137, 38.99502, -76.94415, 61.90, 11, 0, 1, 0, 16.49, 100912.38, -226.56, 61.90, -0.08, -0.01, 0.00, 0.00, 0.00, -1.84, 0.50, 10.03, 804.00, 141.33, 0, 4294967295, 4294967295, 0, 0, 0, 0, 0, 0, 0, 0, 0, 0
$GPGGA,004015.000,3859.7010,N,07656.6492,W,1,11,0.93,61.9,M,-33.5,M,,*68
20:38:58, 1679863138, 38.99502, -76.94415, 61.90, 11, 0, 1, 0, 16.49, 100913.04, -226.62, 61.90, -0.06, -0.01, 0.00, 0.00, 0.00, -1.74, 0.81, 9.77, 807.00, 141.86, 0, 4294967295, 4294967295, 0, 0, 0, 0, 0, 0, 0, 0, 0, 0
$GPGGA,004016.000,3859.7010,N,07656.6492,W,1,11,0.93,61.9,M,-33.5,M,,*6B
20:38:59, 1679863139, 38.99502, -76.94415, 61.90, 11, 0, 1, 0, 16.49, 100914.55, -226.74, 61.90, -0.13, -0.03, 0.00, 0.00, 0.00, -1.99, 0.76, 9.19, 818.00, 143.79, 0, 4294967295, 4294967295, 0, 0, 0, 0, 0, 0, 0, 0, 0, 0
$GPGGA,004017.000,3859.7010,N,07656.6491,W,1,11,0.93,61.9,M,-33.5,M,,*69
20:39:00, 1679863140, 38.99502, -76.94415, 61.90, 11, 0, 1, 0, 16.51, 100910.25, -226.38, 61.90, 0.36, 0.05, 0.00, 0.00, 0.00, -2.66, 1.89, 9.17, 784.00, 137.81, 0, 4294967295, 4294967295, 0, 0, 0, 0, 0, 0, 0, 0, 0, 0
$GPGGA,004018.000,3859.7010,N,07656.6491,W,1,11,0.93,61.9,M,-33.5,M,,*66
20:39:01, 1679863141, 38.99502, -76.94415, 61.90, 11, 0, 1, 0, 16.51, 100913.84, -226.69, 61.90, -0.30, -0.05, 0.00, 0.00, 0.00, -2.17, 1.54, 9.46, 782.00, 137.46, 0, 4294967295, 4294967295, 0, 0, 0, 0, 0, 0, 0, 0, 0, 0
$GPGGA,004019.000,3859.7010,N,07656.6492,W,1,11,0.93,61.9,M,-33.5,M,,*64
20:39:02, 1679863142, 38.99502, -76.94415, 61.90, 11, 0, 1, 0, 16.51, 100914.34, -226.73, 61.90, -0.04, -0.02, 0.00, 0.00, 0.00, -0.55, 1.93, 9.20, 815.00, 143.26, 0, 4294967295, 4294967295, 0, 0, 0, 0, 0, 0, 0, 0, 0, 0
$GPGGA,004020.000,3859.7010,N,07656.6492,W,1,11,0.93,61.9,M,-33.5,M,,*6E
20:39:03, 1679863143, 38.99502, -76.94415, 61.90, 11, 0, 1, 0, 16.51, 100912.38, -226.56, 61.90, 0.17, 0.02, 0.00, 0.00, 0.00, -1.01, 2.28, 8.70, 780.00, 137.11, 0, 4294967295, 4294967295, 0, 0, 0, 0, 0, 0, 0, 0, 0, 0
$GPGGA,004022.000,3859.7010,N,07656.6492,W,1,11,0.84,61.9,M,-33.5,M,,*6A
20:39:04, 1679863144, 38.99502, -76.94415, 61.90, 11, 0, 1, 0, 16.51, 100912.72, -226.59, 61.90, -0.03, -0.01, 0.00, 0.00, 0.00, -0.01, 0.41, 8.00, 805.00, 141.50, 0, 4294967295, 4294967295, 0, 0, 0, 0, 0, 0, 0, 0, 0, 0
$GPGGA,004023.000,3859.7013,N,07656.6494,W,1,11,0.84,61.9,M,-33.5,M,,*6E
