21:11:59, 1679865119, 0.00000, 0.00000, 0.00, 0, 0, 0, 0, 14.08, 100931.52, -228.17, -228.17, -0.00, -0.00, 0.00, 0.00, -0.00, 4.15, 3.71, 11.74, 236.00, 41.48, 0, 4294967295, 4294967295, 0, 0, 0, 0, 0, 0, 0, 0, 2, 0
$GPGGA,235943.800,,,,,0,00,,,M,,M,,*7A
21:12:00, 1679865120, 0.00000, 0.00000, 0.00, 0, 0, 0, 0, 14.23, 100933.00, -228.30, -228.30, -0.12, -0.02, 0.00, 0.00, -0.02, 0.26, 0.66, 9.43, 868.00, 152.58, 0, 4294967295, 4294967295, 0, 0, 0, 0, 0, 0, 0, 0, 2, 0
$GPGGA,235944.799,,,,,0,00,,,M,,M,,*72
21:12:01, 1679865121, 0.00000, 0.00000, 0.00, 0, 0, 0, 0, 14.25, 100931.77, -228.19, -228.19, 0.10, 0.01, 0.00, 0.00, 0.01, -2.32, -4.89, 7.26, 831.00, 146.07, 0, 4294967295, 4294967295, 0, 0, 0, 0, 0, 0, 0, 0, 2, 0
$GPGGA,235945.799,,,,,0,00,,,M,,M,,*73
21:12:02, 1679865122, 0.00000, 0.00000, 0.00, 0, 0, 0, 0, 14.26, 100932.63, -228.26, -228.26, -0.07, -0.01, 0.00, 0.00, -0.01, 1.54, 0.17, 9.76, 830.00, 145.90, 0, 4294967295, 4294967295, 0, 0, 0, 0, 0, 0, 0, 0, 2, 0
$GPGGA,235946.799,,,,,0,00,,,M,,M,,*70
21:12:03, 1679865123, 0.00000, 0.00000, 0.00, 0, 0, 0, 0, 14.27, 100932.08, -228.22, -228.22, 0.05, 0.00, 0.00, 0.00, 0.00, 0.40, -1.47, 9.83, 843.00, 148.18, 0, 4294967295, 4294967295, 0, 0, 0, 0, 0, 0, 0, 0, 2, 0
$GPGGA,235947.799,,,,,0,00,,,M,,M,,*71
21:12:04, 1679865124, 0.00000, 0.00000, 0.00, 0, 0, 0, 0, 14.28, 100933.12, -228.31, -228.31, -0.09, -0.02, 0.00, 0.00, -0.02, -0.01, -0.31, 8.81, 864.00, 151.88, 0, 4294967295, 4294967295, 0, 0, 0, 0, 0, 0, 0, 0, 2, 0
$GPGGA,235948.799,,,,,0,00,,,M,,M,,*7E
21:12:05, 1679865125, 0.00000, 0.00000, 0.00, 0, 0, 0, 0, 14.28, 100934.03, -228.38, -228.38, -0.08, -0.02, 0.00, 0.00, -0.02, 0.79, 1.55, 8.34, 831.00, 146.07, 0, 4294967295, 4294967295, 0, 0, 0, 0, 0, 0, 0, 0, 2, 0
$GPGGA,235949.799,,,,,0,00,,,M,,M,,*7F
21:12:06, 1679865126, 0.00000, 0.00000, 0.00, 0, 0, 0, 0, 14.29, 100935.48, -228.50, -228.50, -0.12, -0.03, 0.00, 0.00, -0.03, -0.65, -2.24, 8.31, 830.00, 145.90, 0, 4294967295, 4294967295, 0, 0, 0, 0, 0, 0, 0, 0, 2, 0
$GPGGA,235950.878,,,,,0,00,,,M,,M,,*77
21:12:07, 1679865127, 0.00000, 0.00000, 0.00, 0, 0, 0, 0, 14.27, 100935.58, -228.51, -228.51, -0.01, -0.01, 0.00, 0.00, -0.01, -4.34, -0.50, 11.55, 842.00, 148.01, 0, 4294967295, 4294967295, 0, 0, 0, 0, 0, 0, 0, 0, 2, 0
$GPGGA,011325.312,,,,,0,00,,,M,,M,,*7C
21:12:08, 1679865128, 0.00000, 0.00000, 0.00, 0, 0, 0, 0, 14.28, 100934.33, -228.41, -228.41, 0.11, 0.01, 0.00, 0.00, 0.01, -1.98, -5.53, 6.56, 859.00, 151.00, 0, 4294967295, 4294967295, 0, 0, 0, 0, 0, 0, 0, 0, 2, 0
$GPGGA,011326.312,,,,,0,00,,,M,,M,,*7F
21:12:09, 1679865129, 0.00000, 0.00000, 0.00, 0, 0, 0, 0, 14.28, 100933.50, -228.34, -228.34, 0.07, 0.00, 0.00, 0.00, 0.00, -0.78, -0.65, 7.41, 830.00, 145.90, 0, 4294967295, 4294967295, 0, 0, 0, 0, 0, 0, 0, 0, 2, 0
$GPGGA,011327.312,,,,,0,00,,,M,,M,,*7E
21:12:10, 1679865130, 0.00000, 0.00000, 0.00, 0, 0, 0, 0, 14.27, 100938.30, -228.74, -228.74, -0.40, -0.08, 0.00, 0.00, -0.08, -5.08, -2.35, 13.81, 829.00, 145.72, 0, 4294967295, 4294967295, 0, 0, 0, 0, 0, 0, 0, 0, 2, 0
$GPGGA,011328.312,,,,,0,00,,,M,,M,,*71
21:12:11, 1679865131, 0.00000, 0.00000, 0.00, 0, 0, 0, 0, 14.28, 100935.00, -228.46, -228.46, 0.28, 0.03, 0.00, 0.00, 0.03, -3.92, -0.88, 9.57, 846.00, 148.71, 0, 4294967295, 4294967295, 0, 0, 0, 0, 0, 0, 0, 0, 2, 0
$GPGGA,011329.312,,,,,0,00,,,M,,M,,*70
21:12:12, 1679865132, 0.00000, 0.00000, 0.00, 0, 0, 0, 0, 14.27, 100933.20, -228.31, -228.31, 0.15, 0.02, 0.00, 0.00, 0.02, -2.10, -1.24, 6.07, 831.00, 146.07, 0, 4294967295, 4294967295, 0, 0, 0, 0, 0, 0, 0, 0, 2, 0
$GPGGA,011330.304,,,,,0,00,,,M,,M,,*7F
21:12:13, 1679865133, 0.00000, 0.00000, 0.00, 0, 0, 0, 0, 14.28, 100933.95, -228.38, -228.38, -0.06, -0.01, 0.00, 0.00, -0.01, -6.33, -3.19, 7.88, 829.00, 145.72, 0, 4294967295, 4294967295, 0, 0, 0, 0, 0, 0, 0, 0, 2, 0
$GPGGA,011331.304,,,,,0,00,,,M,,M,,*7E
21:12:14, 1679865134, 0.00000, 0.00000, 0.00, 0, 0, 0, 0, 14.30, 100937.53, -228.68, -228.68, -0.30, -0.06, 0.00, 0.00, -0.06, -6.47, -3.99, 8.51, 848.00, 149.06, 0, 4294967295, 4294967295, 0, 0, 0, 0, 0, 0, 0, 0, 2, 0
$GPGGA,011332.304,,,,,0,00,,,M,,M,,*7D
21:12:15, 1679865135, 0.00000, 0.00000, 0.00, 0, 0, 0, 0, 14.32, 100932.75, -228.27, -228.27, 0.40, 0.05, 0.00, 0.00, 0.05, -5.61, -4.21, 5.05, 835.00, 146.78, 0, 4294967295, 4294967295, 0, 0, 0, 0, 0, 0, 0, 0, 2, 0
$GPGGA,011333.304,,,,,0,00,,,M,,M,,*7C
21:12:16, 1679865136, 0.00000, 0.00000, 0.00, 0, 0, 0, 0, 14.33, 100935.20, -228.48, -228.48, -0.21, -0.03, 0.00, 0.00, -0.03, -3.87, -2.89, 3.21, 834.00, 146.60, 0, 4294967295, 4294967295, 0, 0, 0, 0, 0, 0, 0, 0, 2, 0
$GPGGA,011334.304,,,,,0,00,,,M,,M,,*7B
21:12:17, 1679865137, 0.00000, 0.00000, 0.00, 0, 0, 0, 0, 14.35, 100937.36, -228.66, -228.66, -0.18, -0.04, 0.00, 0.00, -0.04, -3.87, -1.05, 2.31, 829.00, 145.72, 0, 4294967295, 4294967295, 0, 0, 0, 0, 0, 0, 0, 0, 2, 0
$GPGGA,011335.304,,,,,0,00,,,M,,M,,*7A
21:12:18, 1679865138, 0.00000, 0.00000, 0.00, 0, 0, 0, 0, 14.37, 100937.67, -228.69, -228.69, -0.03, -0.02, 0.00, 0.00, -0.02, -6.95, -2.46, 7.09, 835.00, 146.78, 0, 4294967295, 4294967295, 0, 0, 0, 0, 0, 0, 0, 0, 2, 0
$GPGGA,011336.096,,,,,0,00,,,M,,M,,*71
21:12:20, 1679865140, 0.00000, 0.00000, 0.00, 0, 0, 0, 0, 14.39, 100936.77, -228.61, -228.61, 0.04, -0.01, 0.00, 0.00, -0.01, -5.40, -2.15, 9.80, 842.00, 148.01, 0, 4294967295, 4294967295, 0, 0, 0, 0, 0, 0, 0, 0, 2, 0
$GPGGA,011337.096,,,,,0,00,,,M,,M,,*70
21:12:21, 1679865141, 0.00000, 0.00000, 0.00, 0, 0, 0, 0, 14.40, 100936.34, -228.58, -228.58, 0.04, -0.00, 0.00, 0.00, -0.00, -6.15, -4.24, 9.59, 831.00, 146.07, 0, 4294967295, 4294967295, 0, 0, 0, 0, 0, 0, 0, 0, 2, 0
$GPGGA,011339.096,,,,,0,00,,,M,,M,,*7E
21:12:22, 1679865142, 0.00000, 0.00000, 0.00, 0, 0, 0, 0, 14.41, 100933.34, -228.32, -228.32, 0.25, 0.03, 0.00, 0.00, 0.03, -3.91, -2.77, 9.99, 829.00, 145.72, 0, 4294967295, 4294967295, 0, 0, 0, 0, 0, 0, 0, 0, 2, 0
$GPGGA,011340.096,,,,,0,00,,,M,,M,,*70
21:12:23, 1679865143, 0.00000, 0.00000, 0.00, 0, 0, 0, 0, 14.43, 100934.78, -228.44, -228.44, -0.12, -0.03, 0.00, 0.00, -0.03, -0.05, -3.74, 5.37, 846.00, 148.71, 0, 4294967295, 4294967295, 0, 0, 0, 0, 0, 0, 0, 0, 2, 0
$GPGGA,011341.096,,,,,0,00,,,M,,M,,*71
21:12:24, 1679865144, 0.00000, 0.00000, 0.00, 0, 0, 0, 0, 14.46, 100931.38, -228.16, -228.16, 0.29, 0.04, 0.00, 0.00, 0.04, -2.84, -3.50, 5.66, 843.00, 148.18, 0, 4294967295, 4294967295, 0, 0, 0, 0, 0, 0, 0, 0, 2, 0
$GPGGA,011342.096,,,,,0,00,,,M,,M,,*72
21:12:25, 1679865145, 0.00000, 0.00000, 0.00, 0, 0, 0, 0, 14.47, 100935.12, -228.47, -228.47, -0.31, -0.05, 0.00, 0.00, -0.05, -5.12, -3.74, 6.99, 834.00, 146.60, 0, 4294967295, 4294967295, 0, 0, 0, 0, 0, 0, 0, 0, 2, 0
$GPGGA,011342.316,,,,,0,00,,,M,,M,,*79
21:12:26, 1679865146, 0.00000, 0.00000, 0.00, 0, 0, 0, 0, 14.48, 100930.56, -228.09, -228.09, 0.38, 0.06, 0.00, 0.00, 0.06, -3.42, -7.99, 5.23, 846.00, 148.71, 0, 4294967295, 4294967295, 0, 0, 0, 0, 0, 0, 0, 0, 2, 0
$GPGGA,011344.316,,,,,0,00,,,M,,M,,*7F
21:12:27, 1679865147, 0.00000, 0.00000, 0.00, 0, 0, 0, 0, 14.49, 100928.67, -227.93, -227.93, 0.16, 0.04, 0.00, 0.00, 0.04, 4.08, -6.57, 2.37, 846.00, 148.71, 0, 4294967295, 4294967295, 0, 0, 0, 0, 0, 0, 0, 0, 2, 0
$GPGGA,011345.316,,,,,0,00,,,M,,M,,*7E
21:12:28, 1679865148, 0.00000, 0.00000, 0.00, 0, 0, 0, 0, 14.49, 100930.84, -228.11, -228.11, -0.18, -0.02, 0.00, 0.00, -0.02, 6.75, -9.53, 1.85, 835.00, 146.78, 0, 4294967295, 4294967295, 0, 0, 0, 0, 0, 0, 0, 0, 2, 0
$GPGGA,011346.316,,,,,0,00,,,M,,M,,*7D
21:12:29, 1679865149, 0.00000, 0.00000, 0.00, 0, 0, 0, 0, 14.51, 100928.53, -227.92, -227.92, 0.19, 0.04, 0.00, 0.00, 0.04, 6.54, -7.47, -1.10, 834.00, 146.60, 0, 4294967295, 4294967295, 0, 0, 0, 0, 0, 0, 0, 0, 2, 0
$GPGGA,011347.316,,,,,0,00,,,M,,M,,*7C
21:12:30, 1679865150, 0.00000, 0.00000, 0.00, 0, 0, 0, 0, 14.53, 100931.15, -228.14, -228.14, -0.22, -0.02, 0.00, 0.00, -0.02, 4.82, -7.42, -0.38, 845.00, 148.54, 0, 4294967295, 4294967295, 0, 0, 0, 0, 0, 0, 0, 0, 2, 0
$GPGGA,011348.104,,,,,0,00,,,M,,M,,*72
21:12:31, 1679865151, 0.00000, 0.00000, 0.00, 0, 0, 0, 0, 14.53, 100928.02, -227.88, -227.88, 0.26, 0.06, 0.00, 0.00, 0.06, 4.30, -8.69, 0.76, 831.00, 146.07, 0, 4294967295, 4294967295, 0, 0, 0, 0, 0, 0, 0, 0, 2, 0
$GPGGA,011349.104,,,,,0,00,,,M,,M,,*73
21:12:32, 1679865152, 0.00000, 0.00000, 0.00, 0, 0, 0, 0, 14.55, 100929.33, -227.99, -227.99, -0.11, -0.00, 0.00, 0.00, -0.00, 5.06, -8.50, 0.93, 829.00, 145.72, 0, 4294967295, 4294967295, 0, 0, 0, 0, 0, 0, 0, 0, 2, 0
$GPGGA,011350.104,,,,,0,00,,,M,,M,,*7B
21:12:33, 1679865153, 0.00000, 0.00000, 0.00, 0, 0, 0, 0, 14.56, 100924.40, -227.57, -227.57, 0.41, 0.08, 0.00, 0.00, 0.08, 4.56, -8.35, 1.03, 843.00, 148.18, 0, 4294967295, 4294967295, 0, 0, 0, 0, 0, 0, 0, 0, 2, 0
$GPGGA,011351.104,,,,,0,00,,,M,,M,,*7A
21:12:34, 1679865154, 0.00000, 0.00000, 0.00, 0, 0, 0, 0, 14.58, 100923.30, -227.48, -227.48, 0.09, 0.04, 0.00, 0.00, 0.04, 4.48, -7.93, 1.03, 843.00, 148.18, 0, 4294967295, 4294967295, 0, 0, 0, 0, 0, 0, 0, 0, 2, 0
$GPGGA,011352.104,,,,,0,00,,,M,,M,,*79
21:12:35, 1679865155, 0.00000, 0.00000, 0.00, 0, 0, 0, 0, 14.59, 100921.12, -227.30, -227.30, 0.18, 0.06, 0.00, 0.00, 0.06, 2.59, -7.32, 1.31, 829.00, 145.72, 0, 4294967295, 4294967295, 0, 0, 0, 0, 0, 0, 0, 0, 2, 0
$GPGGA,011353.104,,,,,0,00,,,M,,M,,*78
21:12:36, 1679865156, 0.00000, 0.00000, 0.00, 0, 0, 0, 0, 14.61, 100924.06, -227.54, -227.54, -0.25, -0.00, 0.00, 0.00, -0.00, 1.20, -9.47, -0.30, 829.00, 145.72, 0, 4294967295, 4294967295, 0, 0, 0, 0, 0, 0, 0, 0, 2, 0
$GPGGA,011354.305,,,,,0,00,,,M,,M,,*7C
21:12:37, 1679865157, 0.00000, 0.00000, 0.00, 0, 0, 0, 0, 14.65, 100929.06, -227.96, -227.96, -0.42, -0.04, 0.00, 0.00, -0.04, -0.14, -8.74, 1.46, 830.00, 145.90, 0, 4294967295, 4294967295, 0, 0, 0, 0, 0, 0, 0, 0, 2, 0
$GPGGA,011355.305,,,,,0,00,,,M,,M,,*7D
21:12:38, 1679865158, 0.00000, 0.00000, 0.00, 0, 0, 0, 0, 14.67, 100926.28, -227.70, -227.70, 0.27, 0.07, 0.00, 0.00, 0.07, -4.64, -6.55, 7.70, 828.00, 145.55, 0, 4294967295, 4294967295, 0, 0, 0, 0, 0, 0, 0, 0, 2, 0
$GPGGA,011356.305,,,,,0,00,,,M,,M,,*7E
21:12:39, 1679865159, 0.00000, 0.00000, 0.00, 0, 0, 0, 0, 14.68, 100927.50, -227.83, -227.83, -0.14, -0.00, 0.00, 0.00, -0.00, -0.86, -1.40, 9.58, 845.00, 148.54, 0, 4294967295, 4294967295, 0, 0, 0, 0, 0, 0, 0, 0, 2, 0
$GPGGA,011357.305,,,,,0,00,,,M,,M,,*7F
21:12:40, 1679865160, 0.00000, 0.00000, 0.00, 0, 0, 0, 0, 14.68, 100929.50, -228.00, -228.00, -0.17, -0.02, 0.00, 0.00, -0.02, -0.62, 1.77, 9.84, 847.00, 148.89, 0, 4294967295, 4294967295, 0, 0, 0, 0, 0, 0, 0, 0, 2, 0
$GPGGA,011358.305,,,,,0,00,,,M,,M,,*70
21:12:41, 1679865161, 0.00000, 0.00000, 0.00, 0, 0, 0, 0, 14.69, 100931.36, -228.16, -228.16, -0.16, -0.03, 0.00, 0.00, -0.03, -1.66, 0.88, 9.29, 832.00, 146.25, 0, 4294967295, 4294967295, 0, 0, 0, 0, 0, 0, 0, 0, 2, 0
$GPGGA,011359.305,,,,,0,00,,,M,,M,,*71
21:12:42, 1679865162, 0.00000, 0.00000, 0.00, 0, 0, 0, 0, 14.72, 100929.75, -228.02, -228.02, 0.14, 0.02, 0.00, 0.00, 0.02, -2.10, -0.17, 9.62, 842.00, 148.01, 0, 4294967295, 4294967295, 0, 0, 0, 0, 0, 0, 0, 0, 2, 0
$GPGGA,011400.320,,,,,0,00,,,M,,M,,*7D
21:12:43, 1679865163, 0.00000, 0.00000, 0.00, 0, 0, 0, 0, 14.72, 100928.91, -227.95, -227.95, 0.07, 0.02, 0.00, 0.00, 0.02, -1.39, -0.20, 9.77, 846.00, 148.71, 0, 4294967295, 4294967295, 0, 0, 0, 0, 0, 0, 0, 0, 2, 0
$GPGGA,011401.320,,,,,0,00,,,M,,M,,*7C
21:12:45, 1679865165, 0.00000, 0.00000, 0.00, 0, 0, 0, 0, 14.74, 100929.27, -227.98, -227.98, -0.02, -0.00, 0.00, 0.00, -0.00, -1.40, 0.30, 9.81, 831.00, 146.07, 0, 4294967295, 4294967295, 0, 0, 0, 0, 0, 0, 0, 0, 2, 0
$GPGGA,011402.320,,,,,0,00,,,M,,M,,*7F
21:12:46, 1679865166, 0.00000, 0.00000, 0.00, 0, 0, 0, 0, 14.74, 100928.97, -227.96, -227.96, 0.03, 0.00, 0.00, 0.00, 0.00, 0.57, -1.63, 10.14, 842.00, 148.01, 0, 4294967295, 4294967295, 0, 0, 0, 0, 0, 0, 0, 0, 2, 0
$GPGGA,011403.320,,,,,0,00,,,M,,M,,*7E
21:12:47, 1679865167, 0.00000, 0.00000, 0.00, 0, 0, 0, 0, 14.75, 100930.85, -228.11, -228.11, -0.16, -0.02, 0.00, 0.00, -0.02, -1.22, -4.12, 8.05, 1023.00, 179.82, 0, 4294967295, 4294967295, 0, 0, 0, 0, 0, 0, 0, 0, 2, 0
$GPGGA,011404.320,,,,,0,00,,,M,,M,,*79
21:12:48, 1679865168, 0.00000, 0.00000, 0.00, 0, 0, 0, 0, 14.75, 100927.47, -227.83, -227.83, 0.28, 0.05, 0.00, 0.00, 0.05, -0.57, -3.62, 8.88, 893.00, 156.97, 0, 4294967295, 4294967295, 0, 0, 0, 0, 0, 0, 0, 0, 2, 0
$GPGGA,011406.100,,,,,0,00,,,M,,M,,*7B
21:12:49, 1679865169, 0.00000, 0.00000, 0.00, 0, 0, 0, 0, 14.76, 100927.66, -227.85, -227.85, -0.02, 0.00, 0.00, 0.00, 0.00, -2.57, -3.51, 10.51, 1023.00, 179.82, 0, 4294967295, 4294967295, 0, 0, 0, 0, 0, 0, 0, 0, 2, 0
$GPGGA,011407.319,,,,,0,00,,,M,,M,,*70
21:12:50, 1679865170, 0.00000, 0.00000, 0.00, 0, 0, 0, 0, 14.77, 100928.52, -227.92, -227.92, -0.07, -0.01, 0.00, 0.00, -0.01, 0.37, -2.55, 9.32, 831.00, 146.07, 0, 4294967295, 4294967295, 0, 0, 0, 0, 0, 0, 0, 0, 2, 0
$GPGGA,011408.319,,,,,0,00,,,M,,M,,*7F
21:12:51, 1679865171, 0.00000, 0.00000, 0.00, 0, 0, 0, 0, 14.78, 100931.65, -228.18, -228.18, -0.26, -0.04, 0.00, 0.00, -0.04, 0.86, -1.85, 9.67, 848.00, 149.06, 0, 4294967295, 4294967295, 0, 0, 0, 0, 0, 0, 0, 0, 2, 0
$GPGGA,011409.319,,,,,0,00,,,M,,M,,*7E
21:12:52, 1679865172, 0.00000, 0.00000, 0.00, 0, 0, 0, 0, 14.78, 100926.85, -227.78, -227.78, 0.40, 0.06, 0.00, 0.00, 0.06, 0.26, -2.28, 9.59, 864.00, 151.88, 0, 4294967295, 4294967295, 0, 0, 0, 0, 0, 0, 0, 0, 2, 0
$GPGGA,011410.319,,,,,0,00,,,M,,M,,*76
21:12:53, 1679865173, 0.00000, 0.00000, 0.00, 0, 0, 0, 0, 14.79, 100928.72, -227.94, -227.94, -0.16, -0.01, 0.00, 0.00, -0.01, 0.15, -1.80, 9.18, 845.00, 148.54, 0, 4294967295, 4294967295, 0, 0, 0, 0, 0, 0, 0, 0, 2, 0
$GPGGA,011411.319,,,,,0,00,,,M,,M,,*77
21:12:54, 1679865174, 0.00000, 0.00000, 0.00, 0, 0, 0, 0, 14.79, 100929.38, -227.99, -227.99, -0.06, -0.01, 0.00, 0.00, -0.01, 1.30, -1.46, 9.99, 857.00, 150.64, 0, 4294967295, 4294967295, 0, 0, 0, 0, 0, 0, 0, 0, 2, 0
$GPGGA,011412.320,,,,,0,00,,,M,,M,,*7E
21:12:55, 1679865175, 0.00000, 0.00000, 0.00, 0, 0, 0, 0, 14.79, 100930.92, -228.12, -228.12, -0.13, -0.02, 0.00, 0.00, -0.02, 1.72, -1.50, 9.30, 830.00, 145.90, 0, 4294967295, 4294967295, 0, 0, 0, 0, 0, 0, 0, 0, 2, 0
$GPGGA,011413.320,,,,,0,00,,,M,,M,,*7F
21:12:56, 1679865176, 0.00000, 0.00000, 0.00, 0, 0, 0, 0, 14.80, 100932.80, -228.28, -228.28, -0.16, -0.03, 0.00, 0.00, -0.03, 2.00, -1.00, 9.68, 864.00, 151.88, 0, 4294967295, 4294967295, 0, 0, 0, 0, 0, 0, 0, 0, 2, 0
$GPGGA,011414.320,,,,,0,00,,,M,,M,,*78
21:12:57, 1679865177, 0.00000, 0.00000, 0.00, 0, 0, 0, 0, 14.80, 100929.75, -228.02, -228.02, 0.26, 0.04, 0.00, 0.00, 0.04, 1.47, -1.03, 9.75, 829.00, 145.72, 0, 4294967295, 4294967295, 0, 0, 0, 0, 0, 0, 0, 0, 2, 0
$GPGGA,011415.320,,,,,0,00,,,M,,M,,*79
21:12:58, 1679865178, 0.00000, 0.00000, 0.00, 0, 0, 0, 0, 14.80, 100927.74, -227.85, -227.85, 0.17, 0.02, 0.00, 0.00, 0.02, 1.47, -0.70, 9.74, 839.00, 147.48, 0, 4294967295, 4294967295, 0, 0, 0, 0, 0, 0, 0, 0, 2, 0
$GPGGA,011416.320,,,,,0,00,,,M,,M,,*7A
21:12:59, 1679865179, 0.00000, 0.00000, 0.00, 0, 0, 0, 0, 14.80, 100928.79, -227.94, -227.94, -0.09, -0.01, 0.00, 0.00, -0.01, 1.51, -0.89, 9.61, 828.00, 145.55, 0, 4294967295, 4294967295, 0, 0, 0, 0, 0, 0, 0, 0, 2, 0
$GPGGA,011417.320,,,,,0,00,,,M,,M,,*7B
21:13:00, 1679865180, 0.00000, 0.00000, 0.00, 0, 0, 0, 0, 14.80, 100928.70, -227.93, -227.93, 0.01, 0.00, 0.00, 0.00, 0.00, 1.61, -1.64, 9.67, 829.00, 145.72, 0, 4294967295, 4294967295, 0, 0, 0, 0, 0, 0, 0, 0, 2, 0
$GPGGA,011418.312,,,,,0,03,,,M,,M,,*76
21:13:01, 1679865181, 0.00000, 0.00000, 0.00, 0, 0, 0, 0, 14.81, 100930.49, -228.01, -228.01, -0.08, -0.01, 0.00, 0.00, -0.01, -2.10, 1.35, 9.93, 847.00, 148.89, 0, 4294967295, 4294967295, 0, 0, 0, 0, 0, 0, 0, 0, 2, 0
$GPGGA,011419.312,,,,,0,03,,,M,,M,,*77
21:13:02, 1679865182, 0.00000, 0.00000, 0.00, 0, 0, 0, 0, 14.82, 100929.89, -228.03, -228.03, -0.02, 0.00, 0.00, 0.00, 0.00, -2.76, -0.10, 7.97, 842.00, 148.01, 0, 4294967295, 4294967295, 0, 0, 0, 0, 0, 0, 0, 0, 2, 0
21:13:03, 1679865183, 0.00000, 0.00000, 0.00, 0, 0, 0, 0, 14.84, 100931.63, -228.18, -228.18, -0.15, -0.02, 0.00, 0.00, -0.02, -0.85, 1.75, 9.67, 893.00, 156.97, 0, 4294967295, 4294967295, 0, 0, 0, 0, 0, 0, 0, 0, 2, 0
$GPGGA,011422.000,,,,,0,03,,,M,,M,,*7F
21:13:05, 1679865185, 0.00000, 0.00000, 0.00, 0, 0, 0, 0, 14.84, 100926.31, -227.73, -227.73, 0.22, 0.03, 0.00, 0.00, 0.03, -1.62, 1.74, 9.59, 1023.00, 179.82, 0, 4294967295, 4294967295, 0, 0, 0, 0, 0, 0, 0, 0, 2, 0
$GPGGA,011423.000,,,,,0,03,,,M,,M,,*7E
21:13:06, 1679865186, 0.00000, 0.00000, 0.00, 0, 0, 0, 0, 14.86, 100928.48, -227.92, -227.92, -0.18, -0.03, 0.00, 0.00, -0.03, -3.51, 1.31, 9.59, 860.00, 151.17, 0, 4294967295, 4294967295, 0, 0, 0, 0, 0, 0, 0, 0, 2, 0
$GPGGA,011424.212,,,,,0,03,,,M,,M,,*78
21:13:07, 1679865187, 0.00000, 0.00000, 0.00, 0, 0, 0, 0, 14.87, 100928.59, -227.96, -227.96, -0.04, -0.01, 0.00, 0.00, -0.01, -2.70, -3.28, 8.06, 984.00, 172.97, 0, 4294967295, 4294967295, 0, 0, 0, 0, 0, 0, 0, 0, 2, 0
21:13:08, 1679865188, 0.00000, 0.00000, 0.00, 0, 0, 0, 0, 14.91, 100929.13, -227.97, -227.97, -0.01, -0.01, 0.00, 0.00, -0.01, -2.79, -2.70, 9.57, 1009.00, 177.36, 0, 4294967295, 4294967295, 0, 0, 0, 0, 0, 0, 0, 0, 2, 0
$GPGGA,011426.000,,,,,0,03,,,M,,M,,*7B
21:13:09, 1679865189, 0.00000, 0.00000, 0.00, 0, 0, 0, 0, 14.91, 100928.41, -227.91, -227.91, 0.06, 0.00, 0.00, 0.00, 0.00, -2.43, -1.90, 9.51, 1023.00, 179.82, 0, 4294967295, 4294967295, 0, 0, 0, 0, 0, 0, 0, 0, 2, 0
$GPGGA,011427.000,,,,,0,03,,,M,,M,,*7A
21:13:10, 1679865190, 0.00000, 0.00000, 0.00, 0, 0, 0, 0, 14.92, 100929.66, -228.01, -228.01, -0.11, -0.02, 0.00, 0.00, -0.02, -3.18, -2.28, 9.18, 860.00, 151.17, 0, 4294967295, 4294967295, 0, 0, 0, 0, 0, 0, 0, 0, 2, 0
$GPGGA,011428.000,,,,,0,03,,,M,,M,,*75
21:13:11, 1679865191, 0.00000, 0.00000, 0.00, 0, 0, 0, 0, 14.93, 100932.38, -228.24, -228.24, -0.23, -0.05, 0.00, 0.00, -0.05, -0.30, -1.42, 9.08, 1023.00, 179.82, 0, 4294967295, 4294967295, 0, 0, 0, 0, 0, 0, 0, 0, 2, 0
$GPGGA,011429.000,,,,,0,04,,,M,,M,,*73
21:13:12, 1679865192, 0.00000, 0.00000, 0.00, 0, 0, 0, 0, 14.93, 100931.69, -228.19, -228.19, 0.06, -0.00, 0.00, 0.00, -0.00, 2.48, -2.75, 9.17, 1023.00, 179.82, 0, 4294967295, 4294967295, 0, 0, 0, 0, 0, 0, 0, 0, 2, 0
$GPGGA,011430.000,,,,,0,04,,,M,,M,,*7B
21:13:13, 1679865193, 0.00000, 0.00000, 0.00, 0, 0, 0, 0, 14.93, 100930.19, -228.06, -228.06, 0.13, 0.01, 0.00, 0.00, 0.01, 2.38, -0.64, 9.33, 1023.00, 179.82, 0, 4294967295, 4294967295, 0, 0, 0, 0, 0, 0, 0, 0, 2, 0
$GPGGA,011431.000,3859.6900,N,07656.6859,W,1,04,1.51,183.9,M,-33.5,M,,*5A
21:13:14, 1679865194, 38.99483, -76.94476, 183.90, 4, 0, 1, 0, 14.93, 100931.36, -228.16, 183.90, -0.10, -0.03, 183.90, 30.65, 30.65, 3.30, -1.02, 9.14, 1023.00, 179.82, 0, 4294967295, 4294967295, 0, 0, 0, 0, 0, 0, 0, 0, 0, 0
$GPGGA,011432.000,3859.6894,N,07656.6802,W,1,04,1.51,186.7,M,-33.5,M,,*50
21:13:15, 1679865195, 38.99483, -76.94466, 186.70, 4, 0, 1, 0, 14.93, 100928.02, -227.88, 186.70, 0.28, 0.03, 2.80, 5.58, 5.58, 1.84, -1.09, 10.07, 863.00, 151.70, 0, 4294967295, 4294967295, 0, 0, 0, 0, 0, 0, 0, 0, 0, 0
$GPGGA,011433.000,3859.6864,N,07656.6751,W,1,04,1.51,188.4,M,-33.5,M,,*5A
21:13:16, 1679865196, 38.99477, -76.94458, 188.40, 4, 0, 1, 0, 14.94, 100926.30, -227.73, 188.40, 0.14, 0.02, 1.70, 6.32, 6.32, 2.00, -1.44, 10.27, 865.00, 152.05, 0, 4294967295, 4294967295, 0, 0, 0, 0, 0, 0, 0, 0, 0, 0
$GPGGA,011434.000,3859.6840,N,07656.6735,W,1,04,1.51,189.3,M,-33.5,M,,*5F
21:13:17, 1679865197, 38.99473, -76.94456, 189.30, 4, 0, 1, 0, 14.95, 100930.34, -228.07, 189.30, -0.34, -0.05, 0.90, 7.24, 7.24, 0.88, -0.66, 9.98, 830.00, 145.90, 0, 4294967295, 4294967295, 0, 0, 0, 0, 0, 0, 0, 0, 0, 0
$GPGGA,011435.000,3859.6813,N,07656.6708,W,1,04,1.51,189.9,M,-33.5,M,,*5C
21:13:18, 1679865198, 38.99469, -76.94451, 189.90, 4, 0, 1, 0, 14.95, 100929.50, -228.00, 189.90, 0.07, 0.01, 0.60, 8.40, 8.40, 1.89, -0.42, 9.94, 961.00, 168.93, 0, 4294967295, 4294967295, 0, 0, 0, 0, 0, 0, 0, 0, 0, 0
$GPGGA,011436.000,3859.6766,N,07656.6683,W,1,04,1.51,190.6,M,-33.5,M,,*57
21:13:19, 1679865199, 38.99461, -76.94447, 190.60, 4, 0, 1, 0, 14.95, 100930.72, -228.10, 190.60, -0.10, -0.02, 0.70, 9.81, 9.81, 2.61, -0.24, 9.86, 1023.00, 179.82, 0, 4294967295, 4294967295, 0, 0, 0, 0, 0, 0, 0, 0, 0, 0
$GPGGA,011438.000,3859.6733,N,07656.6650,W,1,04,1.51,190.3,M,-33.5,M,,*52
21:13:20, 1679865200, 38.99456, -76.94441, 190.30, 4, 0, 1, 0, 14.95, 100932.47, -228.25, 190.30, -0.15, -0.03, -0.30, 6.17, 6.17, 2.51, 0.26, 10.48, 858.00, 150.82, 0, 4294967295, 4294967295, 0, 0, 0, 0, 0, 0, 0, 0, 0, 0
$GPGGA,011439.000,3859.6716,N,07656.6637,W,1,04,1.51,190.0,M,-33.5,M,,*56
21:13:22, 1679865202, 38.99453, -76.94439, 190.00, 4, 0, 1, 0, 14.96, 100932.66, -228.27, 190.00, -0.01, -0.01, -0.15, 6.30, 6.30, 3.31, 0.33, 10.07, 1023.00, 179.82, 0, 4294967295, 4294967295, 0, 0, 0, 0, 0, 0, 0, 0, 0, 0
$GPGGA,011440.000,3859.6701,N,07656.6624,W,1,04,1.51,189.6,M,-33.5,M,,*52
21:13:23, 1679865203, 38.99450, -76.94437, 189.60, 4, 0, 1, 0, 14.96, 100930.83, -228.11, 189.60, 0.15, 0.01, -0.40, 6.25, 6.25, 2.80, 0.19, 9.25, 850.00, 149.41, 0, 4294967295, 4294967295, 0, 0, 0, 0, 0, 0, 0, 0, 0, 0
$GPGGA,011441.000,3859.6688,N,07656.6612,W,1,04,1.51,189.0,M,-33.5,M,,*50
21:13:24, 1679865204, 38.99448, -76.94435, 189.00, 4, 0, 1, 0, 14.96, 100931.33, -228.15, 189.00, -0.04, -0.01, -0.60, 6.06, 6.06, 0.13, -0.12, 8.94, 829.00, 145.72, 0, 4294967295, 4294967295, 0, 0, 0, 0, 0, 0, 0, 0, 0, 0
$GPGGA,011442.000,3859.6679,N,07656.6601,W,1,04,1.51,188.1,M,-33.5,M,,*5F
21:13:25, 1679865205, 38.99447, -76.94434, 188.10, 4, 0, 1, 0, 14.97, 100932.06, -228.22, 188.10, -0.06, -0.02, -0.90, 5.62, 5.62, 0.61, -0.17, 9.47, 828.00, 145.55, 0, 4294967295, 4294967295, 0, 0, 0, 0, 0, 0, 0, 0, 0, 0
$GPGGA,011443.000,3859.6672,N,07656.6591,W,1,04,1.51,187.1,M,-33.5,M,,*50
21:13:26, 1679865206, 38.99445, -76.94431, 187.10, 4, 0, 1, 0, 14.97, 100930.73, -228.10, 187.10, 0.11, 0.01, -1.00, 4.90, 4.90, 0.44, 0.75, 9.71, 863.00, 151.70, 0, 4294967295, 4294967295, 0, 0, 0, 0, 0, 0, 0, 0, 0, 0
$GPGGA,011444.000,3859.6667,N,07656.6585,W,1,04,1.51,185.7,M,-33.5,M,,*52
21:13:27, 1679865207, 38.99445, -76.94431, 185.70, 4, 0, 1, 0, 14.98, 100933.86, -228.37, 185.70, -0.26, -0.05, -1.40, 4.62, 4.62, 0.52, -0.02, 9.79, 852.00, 149.77, 0, 4294967295, 4294967295, 0, 0, 0, 0, 0, 0, 0, 0, 0, 0
$GPGGA,011445.000,3859.6668,N,07656.6584,W,1,04,1.51,184.4,M,-33.5,M,,*5F
21:13:28, 1679865208, 38.99445, -76.94431, 184.40, 4, 0, 1, 0, 14.98, 100930.09, -228.05, 184.40, 0.32, 0.04, -1.30, 4.36, 4.36, 0.97, 0.07, 10.03, 845.00, 148.54, 0, 4294967295, 4294967295, 0, 0, 0, 0, 0, 0, 0, 0, 0, 0
$GPGGA,011446.000,3859.6666,N,07656.6580,W,1,04,1.51,183.0,M,-33.5,M,,*55
21:13:29, 1679865209, 38.99445, -76.94430, 183.00, 4, 0, 1, 0, 14.99, 100928.04, -227.88, 183.00, 0.17, 0.02, -1.40, 4.03, 4.03, 0.77, 0.19, 10.64, 824.00, 144.84, 0, 4294967295, 4294967295, 0, 0, 0, 0, 0, 0, 0, 0, 0, 0
$GPGGA,011447.000,3859.6663,N,07656.6576,W,1,04,1.51,181.8,M,-33.5,M,,*52
21:13:30, 1679865210, 38.99444, -76.94430, 181.80, 4, 0, 1, 0, 15.00, 100931.83, -228.20, 181.80, -0.32, -0.05, -1.20, 3.72, 3.72, 0.59, 1.75, 10.10, 1023.00, 179.82, 0, 4294967295, 4294967295, 0, 0, 0, 0, 0, 0, 0, 0, 0, 0
$GPGGA,011448.000,3859.6661,N,07656.6573,W,1,04,1.51,180.8,M,-33.5,M,,*5B
21:13:31, 1679865211, 38.99443, -76.94429, 180.80, 4, 0, 1, 0, 15.00, 100930.33, -228.07, 180.80, 0.13, 0.02, -1.00, 3.44, 3.44, 2.16, 0.18, 9.64, 847.00, 148.89, 0, 4294967295, 4294967295, 0, 0, 0, 0, 0, 0, 0, 0, 0, 0
$GPGGA,011449.000,3859.6661,N,07656.6569,W,1,04,1.51,179.9,M,-33.5,M,,*56
21:13:32, 1679865212, 38.99443, -76.94428, 179.90, 4, 0, 1, 0, 15.00, 100934.13, -228.39, 179.90, -0.32, -0.06, -0.90, 3.21, 3.21, 2.06, 0.11, 9.63, 1003.00, 176.31, 0, 4294967295, 4294967295, 0, 0, 0, 0, 0, 0, 0, 0, 0, 0
$GPGGA,011450.000,3859.6661,N,07656.6565,W,1,04,1.51,179.0,M,-33.5,M,,*5B
21:13:33, 1679865213, 38.99443, -76.94427, 179.00, 4, 0, 1, 0, 15.01, 100932.41, -228.25, 179.00, 0.14, 0.02, -0.90, 2.98, 2.98, 2.00, 0.29, 9.36, 858.00, 150.82, 0, 4294967295, 4294967295, 0, 0, 0, 0, 0, 0, 0, 0, 0, 0
$GPGGA,011451.000,3859.6662,N,07656.6563,W,1,04,4.55,178.1,M,-33.5,M,,*5E
21:13:34, 1679865214, 38.99444, -76.94427, 178.10, 4, 0, 1, 0, 15.01, 100931.41, -228.16, 178.10, 0.08, 0.00, -0.90, 2.74, 2.74, 2.73, 0.22, 9.72, 865.00, 152.05, 0, 4294967295, 4294967295, 0, 0, 0, 0, 0, 0, 0, 0, 0, 0
$GPGGA,011452.000,3859.6665,N,07656.6562,W,1,04,1.51,177.4,M,-33.5,M,,*50
21:13:35, 1679865215, 38.99444, -76.94427, 177.40, 4, 0, 1, 0, 15.01, 100931.41, -228.16, 177.40, 0.00, -0.01, -0.70, 2.56, 2.56, 2.28, 0.22, 10.13, 1011.00, 177.71, 0, 4294967295, 4294967295, 0, 0, 0, 0, 0, 0, 0, 0, 0, 0
$GPGGA,011453.000,3859.6667,N,07656.6560,W,1,04,1.51,176.6,M,-33.5,M,,*52
21:13:36, 1679865216, 38.99445, -76.94426, 176.60, 4, 0, 1, 0, 15.01, 100930.98, -228.13, 176.60, 0.04, 0.00, -0.80, 2.36, 2.36, 1.47, -0.44, 9.46, 1014.00, 178.24, 0, 4294967295, 4294967295, 0, 0, 0, 0, 0, 0, 0, 0, 0, 0
$GPGGA,011454.000,3859.6667,N,07656.6558,W,1,04,1.51,176.0,M,-33.5,M,,*58
21:13:37, 1679865217, 38.99445, -76.94426, 176.00, 4, 0, 1, 0, 15.02, 100931.17, -228.14, 176.00, -0.02, -0.01, -0.60, 2.21, 2.21, 1.75, 0.20, 10.11, 984.00, 172.97, 0, 4294967295, 4294967295, 0, 0, 0, 0, 0, 0, 0, 0, 0, 0
$GPGGA,011455.000,3859.6672,N,07656.6559,W,1,06,1.16,175.4,M,-33.5,M,,*5A
21:13:38, 1679865218, 38.99445, -76.94426, 175.40, 6, 0, 1, 0, 15.02, 100930.34, -228.07, 175.40, 0.07, 0.01, -0.60, 2.04, 2.04, 1.93, 0.22, 9.46, 829.00, 145.72, 0, 4294967295, 4294967295, 0, 0, 0, 0, 0, 0, 0, 0, 0, 0
$GPGGA,011456.000,3859.6678,N,07656.6560,W,1,06,1.16,175.0,M,-33.5,M,,*5D
21:13:39, 1679865219, 38.99446, -76.94426, 175.00, 6, 0, 1, 0, 15.02, 100931.30, -228.15, 175.00, -0.08, -0.01, -0.40, 1.92, 1.92, 1.91, 0.40, 9.66, 1023.00, 179.82, 0, 4294967295, 4294967295, 0, 0, 0, 0, 0, 0, 0, 0, 0, 0
$GPGGA,011457.000,3859.6685,N,07656.6563,W,1,06,1.16,174.6,M,-33.5,M,,*5A
21:13:40, 1679865220, 38.99448, -76.94427, 174.60, 6, 0, 1, 0, 15.03, 100931.42, -228.16, 174.60, -0.01, -0.01, -0.40, 1.78, 1.78, 1.89, 0.11, 9.69, 843.00, 148.18, 0, 4294967295, 4294967295, 0, 0, 0, 0, 0, 0, 0, 0, 0, 0
$GPGGA,011458.000,3859.6685,N,07656.6563,W,1,06,1.16,174.5,M,-33.5,M,,*56
21:13:41, 1679865221, 38.99448, -76.94427, 174.50, 6, 0, 1, 0, 15.03, 100931.50, -228.17, 174.50, -0.01, -0.00, -0.10, 1.70, 1.70, 1.78, 0.63, 10.07, 1023.00, 179.82, 0, 4294967295, 4294967295, 0, 0, 0, 0, 0, 0, 0, 0, 0, 0
$GPGGA,011459.000,3859.6685,N,07656.6563,W,1,06,1.16,174.5,M,-33.5,M,,*57
21:13:42, 1679865222, 38.99448, -76.94427, 174.50, 6, 0, 1, 0, 15.03, 100934.01, -228.38, 174.50, -0.21, -0.04, 0.00, 1.61, 1.61, 1.64, -1.40, 9.72, 861.00, 151.35, 0, 4294967295, 4294967295, 0, 0, 0, 0, 0, 0, 0, 0, 0, 0
$GPGGA,011500.000,3859.6685,N,07656.6563,W,1,06,1.16,174.5,M,-33.5,M,,*5A
21:13:43, 1679865223, 38.99448, -76.94427, 174.50, 6, 0, 1, 0, 15.03, 100931.88, -228.20, 174.50, 0.18, 0.02, 0.00, 1.51, 1.51, 1.91, -3.80, 8.91, 830.00, 145.90, 0, 4294967295, 4294967295, 0, 0, 0, 0, 0, 0, 0, 0, 0, 0
$GPGGA,011501.000,3859.6685,N,07656.6562,W,1,07,1.05,174.4,M,-33.5,M,,*58
21:13:44, 1679865224, 38.99448, -76.94427, 174.40, 7, 0, 1, 0, 15.04, 100928.73, -227.94, 174.40, 0.26, 0.04, -0.10, 1.40, 1.40, 2.00, -2.23, 10.37, 833.00, 146.43, 0, 4294967295, 4294967295, 0, 0, 0, 0, 0, 0, 0, 0, 0, 0
$GPGGA,011502.000,3859.6693,N,07656.6556,W,1,07,1.05,170.9,M,-33.5,M,,*52
21:13:45, 1679865225, 38.99449, -76.94426, 170.90, 7, 0, 1, 0, 15.05, 100928.22, -227.89, 170.90, 0.04, 0.01, -3.50, 0.75, 0.75, -0.34, -3.29, 8.44, 845.00, 148.54, 0, 4294967295, 4294967295, 0, 0, 0, 0, 0, 0, 0, 0, 0, 0
$GPGGA,011504.000,3859.6709,N,07656.6554,W,1,07,1.05,166.3,M,-33.5,M,,*59
21:13:46, 1679865226, 38.99451, -76.94426, 166.30, 7, 0, 1, 0, 15.06, 100928.92, -227.95, 166.30, -0.06, -0.01, -4.60, 0.40, 0.40, 1.33, -4.33, 8.23, 903.00, 158.73, 0, 4294967295, 4294967295, 0, 0, 0, 0, 0, 0, 0, 0, 0, 0
$GPGGA,011505.000,3859.6712,N,07656.6553,W,1,07,1.05,165.5,M,-33.5,M,,*50
21:13:48, 1679865228, 38.99452, -76.94426, 165.50, 7, 0, 1, 0, 15.06, 100934.80, -228.45, 165.50, -0.25, -0.04, -0.40, 0.88, 0.88, 0.67, -3.83, 8.91, 826.00, 145.20, 0, 4294967295, 4294967295, 0, 0, 0, 0, 0, 0, 0, 0, 0, 0
$GPGGA,011506.000,3859.6716,N,07656.6554,W,1,06,1.08,164.8,M,-33.5,M,,*50
21:13:49, 1679865229, 38.99453, -76.94426, 164.80, 6, 0, 1, 0, 15.08, 100927.59, -227.84, 164.80, 0.61, 0.11, -0.70, 0.71, 0.71, 0.41, -3.94, 8.98, 1023.00, 179.82, 0, 4294967295, 4294967295, 0, 0, 0, 0, 0, 0, 0, 0, 0, 0
$GPGGA,011507.000,3859.6715,N,07656.6554,W,1,07,1.05,164.8,M,-33.5,M,,*5E
21:13:50, 1679865230, 38.99453, -76.94426, 164.80, 7, 0, 1, 0, 15.09, 100926.22, -227.73, 164.80, 0.12, 0.04, 0.00, 0.69, 0.69, 2.05, -3.15, 9.73, 842.00, 148.01, 0, 4294967295, 4294967295, 0, 0, 0, 0, 0, 0, 0, 0, 0, 0
$GPGGA,011508.000,3859.6715,N,07656.6553,W,1,07,1.05,164.8,M,-33.5,M,,*56
21:13:51, 1679865231, 38.99453, -76.94426, 164.80, 7, 0, 1, 0, 15.09, 100928.42, -227.91, 164.80, -0.18, -0.01, 0.00, 0.57, 0.57, 2.04, -3.14, 9.62, 846.00, 148.71, 0, 4294967295, 4294967295, 0, 0, 0, 0, 0, 0, 0, 0, 0, 0
$GPGGA,011509.000,3859.6715,N,07656.6553,W,1,07,1.05,164.8,M,-33.5,M,,*57
21:13:52, 1679865232, 38.99453, -76.94426, 164.80, 7, 0, 1, 0, 15.11, 100931.58, -228.18, 164.80, -0.26, -0.03, 0.00, 0.54, 0.54, 2.10, -3.44, 9.59, 830.00, 145.90, 0, 4294967295, 4294967295, 0, 0, 0, 0, 0, 0, 0, 0, 0, 0
$GPGGA,011510.000,3859.6715,N,07656.6553,W,1,07,1.05,164.8,M,-33.5,M,,*5F
21:13:53, 1679865233, 38.99453, -76.94426, 164.80, 7, 0, 1, 0, 15.12, 100929.06, -227.96, 164.80, 0.21, 0.05, 0.00, 0.56, 0.56, 1.72, -3.96, 9.04, 830.00, 145.90, 0, 4294967295, 4294967295, 0, 0, 0, 0, 0, 0, 0, 0, 0, 0
$GPGGA,011511.000,3859.6716,N,07656.6552,W,1,07,1.05,164.8,M,-33.5,M,,*5C
21:13:54, 1679865234, 38.99453, -76.94425, 164.80, 7, 0, 1, 0, 15.13, 100927.95, -227.87, 164.80, 0.09, 0.04, 0.00, 0.51, 0.51, 2.12, -4.20, 9.64, 1023.00, 179.82, 0, 4294967295, 4294967295, 0, 0, 0, 0, 0, 0, 0, 0, 0, 0
$GPGGA,011512.000,3859.6716,N,07656.6552,W,1,07,1.22,164.8,M,-33.5,M,,*5A
21:13:55, 1679865235, 38.99453, -76.94425, 164.80, 7, 0, 1, 0, 15.14, 100928.61, -227.93, 164.80, -0.06, 0.00, 0.00, 0.48, 0.48, 2.34, -4.17, 9.32, 848.00, 149.06, 0, 4294967295, 4294967295, 0, 0, 0, 0, 0, 0, 0, 0, 0, 0
$GPGGA,011513.000,3859.6721,N,07656.6547,W,1,07,1.05,161.9,M,-33.5,M,,*5A
21:13:56, 1679865236, 38.99454, -76.94424, 161.90, 7, 0, 1, 0, 15.15, 100928.47, -227.91, 161.90, 0.01, 0.01, -2.90, -0.04, -0.04, 3.59, -4.82, 8.00, 917.00, 161.19, 0, 4294967295, 4294967295, 0, 0, 0, 0, 0, 0, 0, 0, 0, 0
$GPGGA,011514.000,3859.6724,N,07656.6547,W,1,07,1.05,161.3,M,-33.5,M,,*52
21:13:57, 1679865237, 38.99454, -76.94424, 161.30, 7, 0, 1, 0, 15.17, 100927.02, -227.79, 161.30, 0.12, 0.03, -0.60, 0.24, 0.24, 3.10, -4.94, 8.07, 1010.00, 177.54, 0, 4294967295, 4294967295, 0, 0, 0, 0, 0, 0, 0, 0, 0, 0
$GPGGA,011515.000,3859.6729,N,07656.6541,W,1,07,1.05,158.8,M,-33.5,M,,*59
21:13:58, 1679865238, 38.99455, -76.94423, 158.80, 7, 0, 1, 0, 15.18, 100932.52, -228.26, 158.80, -0.46, -0.06, -2.50, -0.12, -0.12, 3.25, -5.73, 7.37, 841.00, 147.83, 0, 4294967295, 4294967295, 0, 0, 0, 0, 0, 0, 0, 0, 0, 0
$GPGGA,011516.000,3859.6732,N,07656.6540,W,1,06,1.08,158.4,M,-33.5,M,,*51
21:13:59, 1679865239, 38.99455, -76.94423, 158.40, 6, 0, 1, 0, 15.19, 100929.75, -228.02, 158.40, 0.23, 0.04, -0.40, 0.11, 0.11, 4.91, -3.59, 8.00, 826.00, 145.20, 0, 4294967295, 4294967295, 0, 0, 0, 0, 0, 0, 0, 0, 0, 0
$GPGGA,011517.000,3859.6736,N,07656.6539,W,1,06,1.08,157.6,M,-33.5,M,,*57
21:14:00, 1679865240, 38.99456, -76.94423, 157.60, 6, 0, 1, 0, 15.20, 100931.83, -228.20, 157.60, -0.18, -0.02, -0.80, -0.02, -0.02, 4.37, -0.85, 9.09, 881.00, 154.86, 0, 4294967295, 4294967295, 0, 0, 0, 0, 0, 0, 0, 0, 0, 0
$GPGGA,011518.000,3859.6741,N,07656.6534,W,1,07,1.05,155.4,M,-33.5,M,,*59
21:14:01, 1679865241, 38.99457, -76.94422, 155.40, 7, 0, 1, 0, 15.20, 100930.41, -228.08, 155.40, 0.12, 0.02, -2.20, -0.34, -0.34, 3.90, -0.48, 8.52, 885.00, 155.57, 0, 4294967295, 4294967295, 0, 0, 0, 0, 0, 0, 0, 0, 0, 0
$GPGGA,011519.000,3859.6744,N,07656.6533,W,1,08,1.04,154.6,M,-33.5,M,,*57
21:14:02, 1679865242, 38.99457, -76.94421, 154.60, 8, 0, 1, 0, 15.21, 100929.11, -227.97, 154.60, 0.11, 0.02, -0.80, -0.16, -0.16, 1.37, -1.23, 8.66, 862.00, 151.52, 0, 4294967295, 4294967295, 0, 0, 0, 0, 0, 0, 0, 0, 0, 0
$GPGGA,011520.000,3859.6747,N,07656.6534,W,1,08,1.04,153.7,M,-33.5,M,,*5F
21:14:03, 1679865243, 38.99458, -76.94422, 153.70, 8, 0, 1, 0, 15.22, 100931.48, -228.17, 153.70, -0.20, -0.03, -0.90, -0.24, -0.24, 0.25, -2.43, 9.63, 835.00, 146.78, 0, 4294967295, 4294967295, 0, 0, 0, 0, 0, 0, 0, 0, 0, 0
$GPGGA,011522.000,3859.6765,N,07656.6519,W,1,08,1.04,144.5,M,-33.5,M,,*56
21:14:05, 1679865245, 38.99461, -76.94420, 144.50, 8, 0, 1, 0, 15.22, 100933.40, -228.33, 144.50, -0.08, -0.01, -4.60, -0.87, -0.87, 6.51, 0.11, 6.93, 839.00, 147.48, 0, 4294967295, 4294967295, 0, 0, 0, 0, 0, 0, 0, 0, 0, 0
$GPGGA,011523.000,3859.6766,N,07656.6517,W,1,07,1.07,143.2,M,-33.5,M,,*56
21:14:06, 1679865246, 38.99461, -76.94419, 143.20, 7, 0, 1, 0, 15.23, 100931.38, -228.16, 143.20, 0.17, 0.02, -1.30, -0.49, -0.49, 6.77, -1.19, 6.87, 830.00, 145.90, 0, 4294967295, 4294967295, 0, 0, 0, 0, 0, 0, 0, 0, 0, 0
$GPGGA,011524.000,3859.6769,N,07656.6518,W,1,07,1.07,142.7,M,-33.5,M,,*55
21:14:07, 1679865247, 38.99462, -76.94419, 142.70, 7, 0, 1, 0, 15.24, 100927.69, -227.85, 142.70, 0.31, 0.06, -0.50, -0.43, -0.43, 7.27, -2.87, 6.18, 841.00, 147.83, 0, 4294967295, 4294967295, 0, 0, 0, 0, 0, 0, 0, 0, 0, 0
$GPGGA,011525.000,3859.6773,N,07656.6519,W,1,07,1.07,142.1,M,-33.5,M,,*58
21:14:08, 1679865248, 38.99463, -76.94420, 142.10, 7, 0, 1, 0, 15.23, 100927.28, -227.81, 142.10, 0.03, 0.02, -0.60, -0.46, -0.46, 8.01, -2.68, 6.09, 829.00, 145.72, 0, 4294967295, 4294967295, 0, 0, 0, 0, 0, 0, 0, 0, 0, 0
$GPGGA,011526.000,3859.6773,N,07656.6519,W,1,07,1.07,142.0,M,-33.5,M,,*5A
21:14:09, 1679865249, 38.99463, -76.94420, 142.00, 7, 0, 1, 0, 15.24, 100932.70, -228.27, 142.00, -0.46, -0.07, -0.10, -0.43, -0.43, 6.91, -3.29, 5.98, 866.00, 152.23, 0, 4294967295, 4294967295, 0, 0, 0, 0, 0, 0, 0, 0, 0, 0
$GPGGA,011527.000,3859.6773,N,07656.6519,W,1,08,1.04,142.0,M,-33.5,M,,*57
21:14:10, 1679865250, 38.99463, -76.94420, 142.00, 8, 0, 1, 0, 15.25, 100927.97, -227.87, 142.00, 0.40, 0.07, 0.00, -0.45, -0.45, 8.11, -3.88, 4.41, 846.00, 148.71, 0, 4294967295, 4294967295, 0, 0, 0, 0, 0, 0, 0, 0, 0, 0
$GPGGA,011528.000,3859.6773,N,07656.6519,W,1,07,1.05,142.0,M,-33.5,M,,*56
21:14:11, 1679865251, 38.99463, -76.94420, 142.00, 7, 0, 1, 0, 15.26, 100929.34, -227.99, 142.00, -0.12, -0.00, 0.00, -0.38, -0.38, 7.32, -3.75, 4.91, 830.00, 145.90, 0, 4294967295, 4294967295, 0, 0, 0, 0, 0, 0, 0, 0, 0, 0
$GPGGA,011529.000,3859.6773,N,07656.6520,W,1,08,1.04,142.0,M,-33.5,M,,*53
21:14:12, 1679865252, 38.99463, -76.94420, 142.00, 8, 0, 1, 0, 15.26, 100929.45, -228.00, 142.00, -0.01, 0.01, 0.00, -0.36, -0.36, 8.09, -3.35, 5.64, 842.00, 148.01, 0, 4294967295, 4294967295, 0, 0, 0, 0, 0, 0, 0, 0, 0, 0
$GPGGA,011530.000,3859.6778,N,07656.6517,W,1,08,1.04,140.3,M,-33.5,M,,*55
21:14:13, 1679865253, 38.99463, -76.94419, 140.30, 8, 0, 1, 0, 15.27, 100924.47, -227.58, 140.30, 0.42, 0.07, -1.70, -0.63, -0.63, 7.78, -3.96, 4.63, 1023.00, 179.82, 0, 4294967295, 4294967295, 0, 0, 0, 0, 0, 0, 0, 0, 0, 0
$GPGGA,011531.000,3859.6782,N,07656.6510,W,1,09,0.99,136.9,M,-33.5,M,,*59
21:14:14, 1679865254, 38.99464, -76.94418, 136.90, 9, 0, 1, 0, 15.28, 100927.94, -227.87, 136.90, -0.29, -0.03, -3.40, -0.94, -0.94, 8.07, -4.10, 5.07, 843.00, 148.18, 0, 4294967295, 4294967295, 0, 0, 0, 0, 0, 0, 0, 0, 0, 0
$GPGGA,011532.000,3859.6781,N,07656.6509,W,1,09,0.99,135.5,M,-33.5,M,,*5E
21:14:15, 1679865255, 38.99464, -76.94418, 135.50, 9, 0, 1, 0, 15.28, 100929.23, -227.98, 135.50, -0.11, 0.00, -1.40, -0.69, -0.69, 7.83, -3.79, 4.80, 843.00, 148.18, 0, 4294967295, 4294967295, 0, 0, 0, 0, 0, 0, 0, 0, 0, 0
$GPGGA,011533.000,3859.6787,N,07656.6503,W,1,09,0.99,131.9,M,-33.5,M,,*5B
21:14:16, 1679865256, 38.99465, -76.94417, 131.90, 9, 0, 1, 0, 15.29, 100929.25, -227.98, 131.90, -0.00, 0.01, -3.60, -1.10, -1.10, 7.40, -4.57, 4.44, 864.00, 151.88, 0, 4294967295, 4294967295, 0, 0, 0, 0, 0, 0, 0, 0, 0, 0
$GPGGA,011534.000,3859.6796,N,07656.6493,W,1,09,0.99,126.3,M,-33.5,M,,*58
21:14:17, 1679865257, 38.99466, -76.94415, 126.30, 9, 0, 1, 0, 15.31, 100930.73, -228.10, 126.30, -0.12, -0.01, -5.60, -1.55, -1.55, 7.32, -5.26, 4.31, 842.00, 148.01, 0, 4294967295, 4294967295, 0, 0, 0, 0, 0, 0, 0, 0, 0, 0
$GPGGA,011535.000,3859.6802,N,07656.6488,W,1,09,0.99,123.2,M,-33.5,M,,*55
21:14:18, 1679865258, 38.99467, -76.94415, 123.20, 9, 0, 1, 0, 15.30, 100928.16, -227.89, 123.20, 0.22, 0.04, -3.10, -1.34, -1.34, 6.85, -5.84, 5.71, 865.00, 152.05, 0, 4294967295, 4294967295, 0, 0, 0, 0, 0, 0, 0, 0, 0, 0
$GPGGA,011536.000,3859.6806,N,07656.6484,W,1,09,0.99,121.2,M,-33.5,M,,*5C
21:14:19, 1679865259, 38.99468, -76.94414, 121.20, 9, 0, 1, 0, 15.31, 100927.90, -227.87, 121.20, 0.02, 0.00, -2.00, -1.27, -1.27, 6.62, -4.78, 5.63, 843.00, 148.18, 0, 4294967295, 4294967295, 0, 0, 0, 0, 0, 0, 0, 0, 0, 0
$GPGGA,011537.000,3859.6809,N,07656.6481,W,1,09,1.14,119.5,M,-33.5,M,,*5F
21:14:20, 1679865260, 38.99468, -76.94414, 119.50, 9, 0, 1, 0, 15.31, 100926.09, -227.71, 119.50, 0.15, 0.03, -1.70, -1.28, -1.28, 7.00, -4.57, 5.39, 829.00, 145.72, 0, 4294967295, 4294967295, 0, 0, 0, 0, 0, 0, 0, 0, 0, 0
$GPGGA,011538.000,3859.6811,N,07656.6479,W,1,09,1.14,118.6,M,-33.5,M,,*5C
21:14:21, 1679865261, 38.99469, -76.94413, 118.60, 9, 0, 1, 0, 15.32, 100924.47, -227.58, 118.60, 0.14, 0.04, -0.90, -1.24, -1.24, 7.12, -4.39, 5.47, 840.00, 147.66, 0, 4294967295, 4294967295, 0, 0, 0, 0, 0, 0, 0, 0, 0, 0
$GPGGA,011539.000,3859.6813,N,07656.6478,W,1,09,1.14,117.6,M,-33.5,M,,*51
21:14:22, 1679865262, 38.99469, -76.94413, 117.60, 9, 0, 1, 0, 15.33, 100925.41, -227.66, 117.60, -0.08, 0.00, -1.00, -1.28, -1.28, 6.96, -4.61, 5.50, 832.00, 146.25, 0, 4294967295, 4294967295, 0, 0, 0, 0, 0, 0, 0, 0, 0, 0
$GPGGA,011540.000,3859.6815,N,07656.6475,W,1,09,1.14,116.7,M,-33.5,M,,*54
21:14:23, 1679865263, 38.99469, -76.94412, 116.70, 9, 0, 1, 0, 15.33, 100929.95, -228.04, 116.70, -0.38, -0.04, -0.90, -1.22, -1.22, 7.03, -4.25, 5.75, 846.00, 148.71, 0, 4294967295, 4294967295, 0, 0, 0, 0, 0, 0, 0, 0, 0, 0
$GPGGA,011542.000,3859.6818,N,07656.6471,W,1,09,1.14,114.8,M,-33.5,M,,*52
21:14:24, 1679865264, 38.99470, -76.94411, 114.80, 9, 0, 1, 0, 15.34, 100929.65, -228.01, 114.80, 0.03, 0.01, -1.90, -1.36, -1.36, 6.77, -3.88, 5.45, 842.00, 148.01, 0, 4294967295, 4294967295, 0, 0, 0, 0, 0, 0, 0, 0, 0, 0
$GPGGA,011543.000,3859.6818,N,07656.6471,W,1,08,1.17,114.8,M,-33.5,M,,*51
21:14:26, 1679865266, 38.99470, -76.94411, 114.80, 8, 0, 1, 0, 15.35, 100927.39, -227.82, 114.80, 0.09, 0.02, 0.00, -1.06, -1.06, 7.06, -4.86, 5.01, 829.00, 145.72, 0, 4294967295, 4294967295, 0, 0, 0, 0, 0, 0, 0, 0, 0, 0
$GPGGA,011544.000,3859.6818,N,07656.6470,W,1,08,1.17,114.8,M,-33.5,M,,*57
21:14:27, 1679865267, 38.99470, -76.94411, 114.80, 8, 0, 1, 0, 15.37, 100924.94, -227.62, 114.80, 0.21, 0.04, 0.00, -1.03, -1.03, 6.96, -4.53, 5.37, 862.00, 151.52, 0, 4294967295, 4294967295, 0, 0, 0, 0, 0, 0, 0, 0, 0, 0
$GPGGA,011545.000,3859.6818,N,07656.6470,W,1,08,1.17,114.7,M,-33.5,M,,*59
21:14:28, 1679865268, 38.99470, -76.94411, 114.70, 8, 0, 1, 0, 15.37, 100926.11, -228.10, 114.70, -0.48, -0.08, -0.10, -1.01, -1.01, 7.07, -4.33, 4.34, 829.00, 145.72, 0, 4294967295, 4294967295, 0, 0, 0, 0, 0, 0, 0, 0, 0, 0
$GPGGA,011546.000,3859.6818,N,07656.6470,W,1,08,1.17,114.7,M,-33.5,M,,*5A
21:14:29, 1679865269, 38.99470, -76.94411, 114.70, 8, 0, 1, 0, 15.39, 100929.42, -227.99, 114.70, 0.11, 0.01, 0.00, -0.95, -0.95, 5.41, -5.70, 5.62, 824.00, 144.84, 0, 4294967295, 4294967295, 0, 0, 0, 0, 0, 0, 0, 0, 0, 0
$GPGGA,011547.000,3859.6818,N,07656.6470,W,1,08,1.17,114.7,M,-33.5,M,,*5B
21:14:30, 1679865270, 38.99470, -76.94411, 114.70, 8, 0, 1, 0, 15.39, 100929.38, -227.99, 114.70, 0.00, 0.00, 0.00, -0.90, -0.90, 6.35, -5.94, 5.04, 825.00, 145.02, 0, 4294967295, 4294967295, 0, 0, 0, 0, 0, 0, 0, 0, 0, 0
$GPGGA,011548.000,3859.6818,N,07656.6470,W,1,08,1.17,114.7,M,-33.5,M,,*54
21:14:31, 1679865271, 38.99470, -76.94411, 114.70, 8, 0, 1, 0, 15.40, 100930.88, -228.12, 114.70, -0.12, -0.02, 0.00, -0.82, -0.82, 6.45, -5.52, 5.28, 829.00, 145.72, 0, 4294967295, 4294967295, 0, 0, 0, 0, 0, 0, 0, 0, 0, 0
$GPGGA,011549.000,3859.6819,N,07656.6470,W,1,08,1.17,114.7,M,-33.5,M,,*54
21:14:32, 1679865272, 38.99470, -76.94411, 114.70, 8, 0, 1, 0, 15.40, 100930.80, -228.11, 114.70, 0.01, -0.01, 0.00, -0.78, -0.78, 6.36, -5.56, 5.02, 830.00, 145.90, 0, 4294967295, 4294967295, 0, 0, 0, 0, 0, 0, 0, 0, 0, 0
$GPGGA,011550.000,3859.6819,N,07656.6470,W,1,09,1.14,114.7,M,-33.5,M,,*5E
21:14:33, 1679865273, 38.99470, -76.94411, 114.70, 9, 0, 1, 0, 15.42, 100928.09, -227.81, 114.70, 0.30, 0.03, 0.00, -0.74, -0.74, 6.52, -5.63, 5.09, 865.00, 152.05, 0, 4294967295, 4294967295, 0, 0, 0, 0, 0, 0, 0, 0, 0, 0
$GPGGA,011551.000,3859.6819,N,07656.6470,W,1,09,1.14,114.7,M,-33.5,M,,*5F
21:14:34, 1679865274, 38.99470, -76.94411, 114.70, 9, 0, 1, 0, 15.42, 100931.47, -228.17, 114.70, -0.35, -0.06, 0.00, -0.70, -0.70, 6.53, -5.63, 4.98, 862.00, 151.52, 0, 4294967295, 4294967295, 0, 0, 0, 0, 0, 0, 0, 0, 0, 0
$GPGGA,011552.000,3859.6819,N,07656.6470,W,1,09,1.14,114.7,M,-33.5,M,,*5C
21:14:35, 1679865275, 38.99470, -76.94411, 114.70, 9, 0, 1, 0, 15.43, 100929.16, -227.97, 114.70, 0.19, 0.02, 0.00, -0.66, -0.66, 6.44, -5.88, 4.79, 835.00, 146.78, 0, 4294967295, 4294967295, 0, 0, 0, 0, 0, 0, 0, 0, 0, 0
$GPGGA,011553.000,3859.6819,N,07656.6470,W,1,09,1.14,114.7,M,-33.5,M,,*5D
21:14:36, 1679865276, 38.99470, -76.94411, 114.70, 9, 0, 1, 0, 15.44, 100927.47, -227.83, 114.70, 0.14, 0.02, 0.00, -0.62, -0.62, 6.54, -5.74, 4.76, 842.00, 148.01, 0, 4294967295, 4294967295, 0, 0, 0, 0, 0, 0, 0, 0, 0, 0
$GPGGA,011554.000,3859.6819,N,07656.6470,W,1,09,1.14,114.7,M,-33.5,M,,*5A
21:14:37, 1679865277, 38.99470, -76.94411, 114.70, 9, 0, 1, 0, 15.45, 100929.34, -227.99, 114.70, -0.16, -0.02, 0.00, -0.58, -0.58, 6.36, -5.66, 4.95, 829.00, 145.72, 0, 4294967295, 4294967295, 0, 0, 0, 0, 0, 0, 0, 0, 0, 0
$GPGGA,011555.000,3859.6819,N,07656.6470,W,1,09,1.14,114.7,M,-33.5,M,,*5B
21:14:38, 1679865278, 38.99470, -76.94411, 114.70, 9, 0, 1, 0, 15.46, 100928.73, -227.94, 114.70, 0.05, 0.01, 0.00, -0.55, -0.55, 6.43, -5.27, 5.06, 862.00, 151.52, 0, 4294967295, 4294967295, 0, 0, 0, 0, 0, 0, 0, 0, 0, 0
$GPGGA,011556.000,3859.6819,N,07656.6470,W,1,09,1.14,114.7,M,-33.5,M,,*58
21:14:39, 1679865279, 38.99470, -76.94411, 114.70, 9, 0, 1, 0, 15.47, 100930.81, -228.11, 114.70, -0.17, -0.03, 0.00, -0.52, -0.52, 6.83, -5.11, 4.98, 859.00, 151.00, 0, 4294967295, 4294967295, 0, 0, 0, 0, 0, 0, 0, 0, 0, 0
$GPGGA,011557.000,3859.6819,N,07656.6470,W,1,09,1.14,114.7,M,-33.5,M,,*59
21:14:40, 1679865280, 38.99470, -76.94411, 114.70, 9, 0, 1, 0, 15.48, 100932.11, -228.22, 114.70, -0.11, -0.02, 0.00, -0.49, -0.49, 6.88, -5.40, 4.62, 842.00, 148.01, 0, 4294967295, 4294967295, 0, 0, 0, 0, 0, 0, 0, 0, 0, 0
$GPGGA,011558.000,3859.6819,N,07656.6470,W,1,08,1.17,114.7,M,-33.5,M,,*54
21:14:41, 1679865281, 38.99470, -76.94411, 114.70, 8, 0, 1, 0, 15.49, 100934.39, -228.41, 114.70, -0.19, -0.04, 0.00, -0.46, -0.46, 7.17, -6.12, 3.74, 827.00, 145.37, 0, 4294967295, 4294967295, 0, 0, 0, 0, 0, 0, 0, 0, 0, 0
$GPGGA,011559.000,3859.6819,N,07656.6470,W,1,08,1.17,114.6,M,-33.5,M,,*54
21:14:42, 1679865282, 38.99470, -76.94411, 114.60, 8, 0, 1, 0, 15.50, 100931.32, -228.06, 114.60, 0.36, 0.04, -0.10, -0.45, -0.45, 6.44, -6.46, 1.50, 829.00, 145.72, 0, 4294967295, 4294967295, 0, 0, 0, 0, 0, 0, 0, 0, 0, 0
$GPGGA,011600.000,3859.6819,N,07656.6470,W,1,08,1.17,114.6,M,-33.5,M,,*5B
21:14:43, 1679865283, 38.99470, -76.94411, 114.60, 8, 0, 1, 0, 15.52, 100930.17, -228.06, 114.60, -0.00, -0.01, 0.00, -0.41, -0.41, 7.25, -6.23, 1.97, 831.00, 146.07, 0, 4294967295, 4294967295, 0, 0, 0, 0, 0, 0, 0, 0, 0, 0
$GPGGA,011601.000,3859.6819,N,07656.6470,W,1,08,1.17,114.6,M,-33.5,M,,*5A
21:14:44, 1679865284, 38.99470, -76.94411, 114.60, 8, 0, 1, 0, 15.52, 100931.30, -228.15, 114.60, -0.09, -0.03, 0.00, -0.39, -0.39, 7.02, -6.53, 2.23, 842.00, 148.01, 0, 4294967295, 4294967295, 0, 0, 0, 0, 0, 0, 0, 0, 0, 0
$GPGGA,011602.000,3859.6819,N,07656.6470,W,1,08,1.17,114.6,M,-33.5,M,,*59
21:14:45, 1679865285, 38.99470, -76.94411, 114.60, 8, 0, 1, 0, 15.53, 100930.70, -228.10, 114.60, 0.05, -0.00, 0.00, -0.37, -0.37, 7.07, -6.48, 2.19, 865.00, 152.05, 0, 4294967295, 4294967295, 0, 0, 0, 0, 0, 0, 0, 0, 0, 0
$GPGGA,011603.000,3859.6819,N,07656.6470,W,1,08,1.17,114.6,M,-33.5,M,,*58
21:14:46, 1679865286, 38.99470, -76.94411, 114.60, 8, 0, 1, 0, 15.55, 100930.77, -228.11, 114.60, -0.01, -0.01, 0.00, -0.35, -0.35, 6.93, -6.68, 2.45, 829.00, 145.72, 0, 4294967295, 4294967295, 0, 0, 0, 0, 0, 0, 0, 0, 0, 0
$GPGGA,011604.000,3859.6818,N,07656.6471,W,1,09,1.14,114.1,M,-33.5,M,,*5A
21:14:47, 1679865287, 38.99470, -76.94411, 114.10, 9, 0, 1, 0, 15.55, 100931.59, -228.18, 114.10, -0.07, -0.01, -0.50, -0.41, -0.41, 6.12, -7.24, 2.67, 833.00, 146.43, 0, 4294967295, 4294967295, 0, 0, 0, 0, 0, 0, 0, 0, 0, 0
$GPGGA,011605.000,3859.6820,N,07656.6472,W,1,09,1.14,113.9,M,-33.5,M,,*5C
21:14:48, 1679865288, 38.99470, -76.94411, 113.90, 9, 0, 1, 0, 15.56, 100932.33, -228.24, 113.90, -0.06, -0.02, -0.20, -0.35, -0.35, 5.77, -6.74, 3.57, 842.00, 148.01, 0, 4294967295, 4294967295, 0, 0, 0, 0, 0, 0, 0, 0, 0, 0
$GPGGA,011607.000,3859.6824,N,07656.6472,W,1,08,1.17,113.1,M,-33.5,M,,*50
21:14:50, 1679865290, 38.99471, -76.94411, 113.10, 8, 0, 1, 0, 15.58, 100930.00, -228.04, 113.10, 0.10, 0.01, -0.40, -0.38, -0.38, 6.24, -6.84, 3.10, 825.00, 145.02, 0, 4294967295, 4294967295, 0, 0, 0, 0, 0, 0, 0, 0, 0, 0
$GPGGA,011608.000,3859.6824,N,07656.6472,W,1,08,1.17,113.1,M,-33.5,M,,*5F
21:14:51, 1679865291, 38.99471, -76.94411, 113.10, 8, 0, 1, 0, 15.59, 100931.42, -228.16, 113.10, -0.12, -0.03, 0.00, -0.31, -0.31, 6.36, -6.74, 3.01, 845.00, 148.54, 0, 4294967295, 4294967295, 0, 0, 0, 0, 0, 0, 0, 0, 0, 0
$GPGGA,011609.000,3859.6824,N,07656.6472,W,1,08,1.17,113.1,M,-33.5,M,,*5E
21:14:52, 1679865292, 38.99471, -76.94411, 113.10, 8, 0, 1, 0, 15.60, 100928.84, -227.95, 113.10, 0.22, 0.03, 0.00, -0.30, -0.30, 6.10, -6.96, 2.86, 830.00, 145.90, 0, 4294967295, 4294967295, 0, 0, 0, 0, 0, 0, 0, 0, 0, 0
$GPGGA,011610.000,3859.6824,N,07656.6472,W,1,08,1.17,113.1,M,-33.5,M,,*56
21:14:53, 1679865293, 38.99471, -76.94411, 113.10, 8, 0, 1, 0, 15.61, 100928.76, -227.94, 113.10, 0.01, -0.00, 0.00, -0.29, -0.29, 6.00, -7.00, 3.12, 843.00, 148.18, 0, 4294967295, 4294967295, 0, 0, 0, 0, 0, 0, 0, 0, 0, 0
$GPGGA,011611.000,3859.6824,N,07656.6472,W,1,08,1.17,113.1,M,-33.5,M,,*57
21:14:54, 1679865294, 38.99471, -76.94411, 113.10, 8, 0, 1, 0, 15.61, 100927.95, -227.87, 113.10, 0.07, 0.01, 0.00, -0.27, -0.27, 5.32, -7.62, 2.83, 830.00, 145.90, 0, 4294967295, 4294967295, 0, 0, 0, 0, 0, 0, 0, 0, 0, 0
$GPGGA,011612.000,3859.6824,N,07656.6472,W,1,08,1.17,113.1,M,-33.5,M,,*54
21:14:55, 1679865295, 38.99471, -76.94411, 113.10, 8, 0, 1, 0, 15.63, 100926.94, -227.79, 113.10, 0.09, 0.02, 0.00, -0.26, -0.26, 4.58, -7.81, 2.86, 829.00, 145.72, 0, 4294967295, 4294967295, 0, 0, 0, 0, 0, 0, 0, 0, 0, 0
$GPGGA,011613.000,3859.6821,N,07656.6474,W,1,08,1.17,112.7,M,-33.5,M,,*51
21:14:56, 1679865296, 38.99471, -76.94412, 112.70, 8, 0, 1, 0, 15.63, 100929.56, -228.01, 112.70, -0.22, -0.03, -0.40, -0.31, -0.31, 4.80, -8.13, 2.57, 824.00, 144.84, 0, 4294967295, 4294967295, 0, 0, 0, 0, 0, 0, 0, 0, 0, 0
$GPGGA,011614.000,3859.6817,N,07656.6476,W,1,08,1.17,112.3,M,-33.5,M,,*55
21:14:57, 1679865297, 38.99470, -76.94412, 112.30, 8, 0, 1, 0, 15.64, 100926.59, -227.76, 112.30, 0.25, 0.04, -0.40, -0.30, -0.30, 5.91, -7.66, 2.60, 824.00, 144.84, 0, 4294967295, 4294967295, 0, 0, 0, 0, 0, 0, 0, 0, 0, 0
$GPGGA,011615.000,3859.6814,N,07656.6477,W,1,08,1.17,111.8,M,-33.5,M,,*5E
21:14:58, 1679865298, 38.99469, -76.94413, 111.80, 8, 0, 1, 0, 15.63, 100928.64, -227.93, 111.80, -0.17, -0.02, -0.50, -0.32, -0.32, 5.78, -6.77, 3.36, 829.00, 145.72, 0, 4294967295, 4294967295, 0, 0, 0, 0, 0, 0, 0, 0, 0, 0
$GPGGA,011616.000,3859.6812,N,07656.6477,W,1,08,1.17,111.3,M,-33.5,M,,*50
21:14:59, 1679865299, 38.99469, -76.94413, 111.30, 8, 0, 1, 0, 15.63, 100925.70, -227.68, 111.30, 0.25, 0.04, -0.50, -0.33, -0.33, 6.19, -6.90, 3.53, 832.00, 146.25, 0, 4294967295, 4294967295, 0, 0, 0, 0, 0, 0, 0, 0, 0, 0
$GPGGA,011617.000,3859.6812,N,07656.6478,W,1,08,1.17,111.3,M,-33.5,M,,*5E
21:15:00, 1679865300, 38.99469, -76.94413, 111.30, 8, 0, 1, 0, 15.64, 100929.29, -227.98, 111.30, -0.30, -0.04, 0.00, -0.25, -0.25, 6.62, -6.68, 3.35, 866.00, 152.23, 0, 4294967295, 4294967295, 0, 0, 0, 0, 0, 0, 0, 0, 0, 0
$GPGGA,011618.000,3859.6812,N,07656.6478,W,1,08,1.17,111.3,M,-33.5,M,,*51
21:15:01, 1679865301, 38.99469, -76.94413, 111.30, 8, 0, 1, 0, 15.65, 100929.41, -227.99, 111.30, -0.01, -0.00, 0.00, -0.25, -0.25, 6.74, -6.41, 3.58, 829.00, 145.72, 0, 4294967295, 4294967295, 0, 0, 0, 0, 0, 0, 0, 0, 0, 0
$GPGGA,011619.000,3859.6812,N,07656.6478,W,1,08,1.17,111.3,M,-33.5,M,,*50
21:15:02, 1679865302, 38.99469, -76.94413, 111.30, 8, 0, 1, 0, 15.66, 100930.78, -228.11, 111.30, -0.12, -0.02, 0.00, -0.24, -0.24, 6.59, -6.46, 3.68, 866.00, 152.23, 0, 4294967295, 4294967295, 0, 0, 0, 0, 0, 0, 0, 0, 0, 0
$GPGGA,011621.000,3859.6811,N,07656.6478,W,1,08,1.17,110.6,M,-33.5,M,,*5C
21:15:04, 1679865304, 38.99469, -76.94413, 110.60, 8, 0, 1, 0, 15.66, 100928.92, -227.95, 110.60, 0.08, 0.01, -0.35, -0.29, -0.29, 6.63, -6.40, 3.62, 924.00, 162.42, 0, 4294967295, 4294967295, 0, 0, 0, 0, 0, 0, 0, 0, 0, 0
$GPGGA,011622.000,3859.6808,N,07656.6481,W,1,08,1.17,110.6,M,-33.5,M,,*51
21:15:05, 1679865305, 38.99468, -76.94414, 110.60, 8, 0, 1, 0, 15.67, 100931.01, -228.13, 110.60, -0.17, -0.03, 0.00, -0.23, -0.23, 6.68, -6.72, 3.38, 842.00, 148.01, 0, 4294967295, 4294967295, 0, 0, 0, 0, 0, 0, 0, 0, 0, 0
$GPGGA,011623.000,3859.6805,N,07656.6480,W,1,09,1.14,110.1,M,-33.5,M,,*59
21:15:06, 1679865306, 38.99467, -76.94413, 110.10, 9, 0, 1, 0, 15.68, 100926.94, -227.79, 110.10, 0.34, 0.04, -0.50, -0.29, -0.29, 6.94, -6.71, 2.99, 895.00, 157.32, 0, 4294967295, 4294967295, 0, 0, 0, 0, 0, 0, 0, 0, 0, 0
$GPGGA,011624.000,3859.6801,N,07656.6483,W,1,09,1.14,110.2,M,-33.5,M,,*5A
21:15:07, 1679865307, 38.99467, -76.94414, 110.20, 9, 0, 1, 0, 15.69, 100928.56, -227.92, 110.20, -0.14, -0.02, 0.10, -0.20, -0.20, 6.89, -6.26, 3.56, 858.00, 150.82, 0, 4294967295, 4294967295, 0, 0, 0, 0, 0, 0, 0, 0, 0, 0
$GPGGA,011625.000,3859.6797,N,07656.6483,W,1,09,1.14,110.4,M,-33.5,M,,*5D
21:15:08, 1679865308, 38.99466, -76.94414, 110.40, 9, 0, 1, 0, 15.69, 100930.93, -228.12, 110.40, -0.20, -0.04, 0.20, -0.18, -0.18, 6.76, -6.36, 3.49, 847.00, 148.89, 0, 4294967295, 4294967295, 0, 0, 0, 0, 0, 0, 0, 0, 0, 0
$GPGGA,011626.000,3859.6794,N,07656.6485,W,1,09,1.14,110.5,M,-33.5,M,,*5A
21:15:09, 1679865309, 38.99466, -76.94414, 110.50, 9, 0, 1, 0, 15.70, 100927.80, -227.86, 110.50, 0.26, 0.04, 0.10, -0.18, -0.18, 6.66, -6.32, 4.12, 865.00, 152.05, 0, 4294967295, 4294967295, 0, 0, 0, 0, 0, 0, 0, 0, 0, 0
$GPGGA,011627.000,3859.6794,N,07656.6485,W,1,09,1.14,110.5,M,-33.5,M,,*5B
21:15:10, 1679865310, 38.99466, -76.94414, 110.50, 9, 0, 1, 0, 15.70, 100931.39, -228.16, 110.50, -0.30, -0.05, 0.00, -0.18, -0.18, 7.00, -5.81, 4.42, 866.00, 152.23, 0, 4294967295, 4294967295, 0, 0, 0, 0, 0, 0, 0, 0, 0, 0
$GPGGA,011628.000,3859.6796,N,07656.6485,W,1,08,1.17,110.3,M,-33.5,M,,*52
21:15:11, 1679865311, 38.99466, -76.94414, 110.30, 8, 0, 1, 0, 15.70, 100929.96, -228.04, 110.30, 0.12, 0.01, -0.20, -0.21, -0.21, 7.08, -5.72, 4.26, 835.00, 146.78, 0, 4294967295, 4294967295, 0, 0, 0, 0, 0, 0, 0, 0, 0, 0
$GPGGA,011629.000,3859.6795,N,07656.6486,W,1,08,1.17,110.2,M,-33.5,M,,*52
21:15:12, 1679865312, 38.99466, -76.94414, 110.20, 8, 0, 1, 0, 15.71, 100933.76, -228.36, 110.20, -0.32, -0.06, -0.10, -0.17, -0.17, 7.67, -2.63, 6.27, 835.00, 146.78, 0, 4294967295, 4294967295, 0, 0, 0, 0, 0, 0, 0, 0, 0, 0
$GPGGA,011630.000,3859.6793,N,07656.6488,W,1,08,1.17,110.4,M,-33.5,M,,*54
21:15:13, 1679865313, 38.99466, -76.94415, 110.40, 8, 0, 1, 0, 15.71, 100932.20, -228.23, 110.40, 0.13, 0.00, 0.20, -0.12, -0.12, 6.34, 0.59, 8.03, 841.00, 147.83, 0, 4294967295, 4294967295, 0, 0, 0, 0, 0, 0, 0, 0, 0, 0
$GPGGA,011631.000,3859.6797,N,07656.6483,W,1,09,1.14,109.2,M,-33.5,M,,*56
21:15:14, 1679865314, 38.99466, -76.94414, 109.20, 9, 0, 1, 0, 15.72, 100930.19, -228.06, 109.20, 0.17, 0.02, -1.20, -0.34, -0.34, 7.42, -0.25, 7.13, 828.00, 145.55, 0, 4294967295, 4294967295, 0, 0, 0, 0, 0, 0, 0, 0, 0, 0
$GPGGA,011632.000,3859.6801,N,07656.6481,W,1,08,1.19,108.4,M,-33.5,M,,*5C
21:15:15, 1679865315, 38.99467, -76.94414, 108.40, 8, 0, 1, 0, 15.72, 100932.73, -228.27, 108.40, -0.21, -0.05, -0.80, -0.30, -0.30, 6.95, 0.05, 6.85, 865.00, 152.05, 0, 4294967295, 4294967295, 0, 0, 0, 0, 0, 0, 0, 0, 0, 0
$GPGGA,011633.000,3859.6807,N,07656.6476,W,1,09,1.14,106.5,M,-33.5,M,,*50
21:15:16, 1679865316, 38.99468, -76.94412, 106.50, 9, 0, 1, 0, 15.73, 100932.22, -228.23, 106.50, 0.04, -0.01, -1.90, -0.51, -0.51, 6.45, -0.27, 7.35, 847.00, 148.89, 0, 4294967295, 4294967295, 0, 0, 0, 0, 0, 0, 0, 0, 0, 0
$GPGGA,011634.000,3859.6807,N,07656.6470,W,1,09,1.14,105.4,M,-33.5,M,,*53
21:15:17, 1679865317, 38.99468, -76.94411, 105.40, 9, 0, 1, 0, 15.73, 100927.66, -227.85, 105.40, 0.38, 0.05, -1.10, -0.42, -0.42, 7.44, -0.12, 6.94, 829.00, 145.72, 0, 4294967295, 4294967295, 0, 0, 0, 0, 0, 0, 0, 0, 0, 0
$GPGGA,011635.000,3859.6809,N,07656.6467,W,1,09,1.14,104.5,M,-33.5,M,,*5A
21:15:18, 1679865318, 38.99468, -76.94411, 104.50, 9, 0, 1, 0, 15.72, 100928.72, -227.94, 104.50, -0.09, -0.01, -0.90, -0.43, -0.43, 6.26, -0.15, 7.04, 825.00, 145.02, 0, 4294967295, 4294967295, 0, 0, 0, 0, 0, 0, 0, 0, 0, 0
$GPGGA,011636.000,3859.6811,N,07656.6463,W,1,09,1.14,103.6,M,-33.5,M,,*50
21:15:19, 1679865319, 38.99469, -76.94410, 103.60, 9, 0, 1, 0, 15.72, 100931.31, -228.15, 103.60, -0.22, -0.04, -0.90, -0.49, -0.49, 6.85, 1.42, 7.58, 865.00, 152.05, 0, 4294967295, 4294967295, 0, 0, 0, 0, 0, 0, 0, 0, 0, 0
$GPGGA,011637.000,3859.6811,N,07656.6463,W,1,09,1.14,103.5,M,-33.5,M,,*52
21:15:20, 1679865320, 38.99469, -76.94410, 103.50, 9, 0, 1, 0, 15.72, 100931.19, -228.14, 103.50, 0.01, -0.01, -0.10, -0.38, -0.38, 6.97, 1.21, 7.13, 828.00, 145.55, 0, 4294967295, 4294967295, 0, 0, 0, 0, 0, 0, 0, 0, 0, 0
$GPGGA,011638.000,3859.6815,N,07656.6460,W,1,09,1.14,102.7,M,-33.5,M,,*59
21:15:21, 1679865321, 38.99469, -76.94410, 102.70, 9, 0, 1, 0, 15.73, 100930.42, -228.08, 102.70, 0.06, 0.01, -0.80, -0.50, -0.50, 6.95, 1.62, 6.88, 865.00, 152.05, 0, 4294967295, 4294967295, 0, 0, 0, 0, 0, 0, 0, 0, 0, 0
$GPGGA,011639.000,3859.6817,N,07656.6459,W,1,09,1.14,102.7,M,-33.5,M,,*50
21:15:22, 1679865322, 38.99470, -76.94410, 102.70, 9, 0, 1, 0, 15.73, 100934.52, -228.42, 102.70, -0.34, -0.06, 0.00, -0.37, -0.37, 7.26, 1.68, 6.60, 845.00, 148.54, 0, 4294967295, 4294967295, 0, 0, 0, 0, 0, 0, 0, 0, 0, 0
$GPGGA,011640.000,3859.6819,N,07656.6458,W,1,09,1.14,102.3,M,-33.5,M,,*55
21:15:23, 1679865323, 38.99470, -76.94410, 102.30, 9, 0, 1, 0, 15.73, 100935.19, -228.39, 102.30, 0.03, -0.01, -0.40, -0.43, -0.43, 6.52, 1.98, 5.49, 842.00, 148.01, 0, 4294967295, 4294967295, 0, 0, 0, 0, 0, 0, 0, 0, 0, 0
$GPGGA,011641.000,3859.6821,N,07656.6458,W,1,08,1.17,101.8,M,-33.5,M,,*55
21:15:24, 1679865324, 38.99471, -76.94410, 101.80, 8, 0, 1, 0, 15.73, 100931.09, -228.14, 101.80, 0.26, 0.03, -0.50, -0.44, -0.44, 7.04, 3.55, 6.81, 841.00, 147.83, 0, 4294967295, 4294967295, 0, 0, 0, 0, 0, 0, 0, 0, 0, 0
$GPGGA,011642.000,3859.6824,N,07656.6455,W,1,09,1.14,100.6,M,-33.5,M,,*53
21:15:25, 1679865325, 38.99471, -76.94409, 100.60, 9, 0, 1, 0, 15.71, 100932.04, -228.21, 100.60, -0.08, -0.02, -1.20, -0.55, -0.55, 6.93, 3.28, 6.66, 841.00, 147.83, 0, 4294967295, 4294967295, 0, 0, 0, 0, 0, 0, 0, 0, 0, 0
$GPGGA,011643.000,3859.6829,N,07656.6449,W,2,09,0.99,98.5,M,-33.5,M,0000,0000*66
21:15:26, 1679865326, 38.99472, -76.94408, 98.50, 9, 0, 1, 0, 15.73, 100933.52, -228.34, 98.50, -0.12, -0.03, -2.10, -0.73, -0.73, 5.49, 3.45, 6.98, 845.00, 148.54, 0, 4294967295, 4294967295, 0, 0, 0, 0, 0, 0, 0, 0, 0, 0
$GPGGA,011644.000,3859.6834,N,07656.6443,W,2,09,0.99,96.8,M,-33.5,M,0000,0000*64
21:15:27, 1679865327, 38.99472, -76.94407, 96.80, 9, 0, 1, 0, 15.73, 100934.69, -228.44, 96.80, -0.10, -0.03, -1.70, -0.71, -0.71, 5.76, 3.98, 7.11, 829.00, 145.72, 0, 4294967295, 4294967295, 0, 0, 0, 0, 0, 0, 0, 0, 0, 0
$GPGGA,011645.000,3859.6838,N,07656.6439,W,2,09,0.99,95.5,M,-33.5,M,0000,0000*6A
21:15:29, 1679865329, 38.99473, -76.94406, 95.50, 9, 0, 1, 0, 15.73, 100931.72, -228.19, 95.50, 0.12, 0.01, -0.65, -0.59, -0.59, 6.49, 2.52, 7.09, 862.00, 151.52, 0, 4294967295, 4294967295, 0, 0, 0, 0, 0, 0, 0, 0, 0, 0
$GPGGA,011646.000,3859.6840,N,07656.6436,W,2,08,0.99,94.2,M,-33.5,M,0000,0000*6E
21:15:30, 1679865330, 38.99473, -76.94406, 94.20, 8, 0, 1, 0, 15.73, 100934.44, -228.42, 94.20, -0.23, -0.05, -1.30, -0.72, -0.72, 5.66, 3.14, 6.94, 846.00, 148.71, 0, 4294967295, 4294967295, 0, 0, 0, 0, 0, 0, 0, 0, 0, 0
$GPGGA,011647.000,3859.6845,N,07656.6433,W,2,08,0.99,93.1,M,-33.5,M,0000,0000*6B
21:15:31, 1679865331, 38.99474, -76.94405, 93.10, 8, 0, 1, 0, 15.73, 100935.45, -228.50, 93.10, -0.08, -0.03, -1.10, -0.73, -0.73, 6.13, 6.10, 7.83, 829.00, 145.72, 0, 4294967295, 4294967295, 0, 0, 0, 0, 0, 0, 0, 0, 0, 0
$GPGGA,011648.000,3859.6848,N,07656.6431,W,2,09,0.99,91.9,M,-33.5,M,0000,0000*60
21:15:32, 1679865332, 38.99475, -76.94405, 91.90, 9, 0, 1, 0, 15.73, 100935.78, -228.53, 91.90, -0.03, -0.03, -1.20, -0.78, -0.78, 6.21, 5.51, 6.65, 865.00, 152.05, 0, 4294967295, 4294967295, 0, 0, 0, 0, 0, 0, 0, 0, 0, 0
$GPGGA,011649.000,3859.6851,N,07656.6427,W,2,08,0.99,90.8,M,-33.5,M,0000,0000*6F
21:15:33, 1679865333, 38.99475, -76.94405, 90.80, 8, 0, 1, 0, 15.72, 100933.39, -228.33, 90.80, 0.20, 0.01, -1.10, -0.77, -0.77, 4.47, 3.25, 6.52, 866.00, 152.23, 0, 4294967295, 4294967295, 0, 0, 0, 0, 0, 0, 0, 0, 0, 0
$GPGGA,011650.000,3859.6853,N,07656.6426,W,2,08,0.99,90.1,M,-33.5,M,0000,0000*6D
21:15:34, 1679865334, 38.99475, -76.94404, 90.10, 8, 0, 1, 0, 15.73, 100933.11, -228.30, 90.10, 0.02, -0.01, -0.70, -0.72, -0.72, 6.01, -0.68, 7.80, 841.00, 147.83, 0, 4294967295, 4294967295, 0, 0, 0, 0, 0, 0, 0, 0, 0, 0
$GPGGA,011651.000,3859.6856,N,07656.6424,W,2,09,0.99,89.2,M,-33.5,M,0000,0000*61
21:15:35, 1679865335, 38.99476, -76.94404, 89.20, 9, 0, 1, 0, 15.74, 100933.83, -228.36, 89.20, -0.06, -0.03, -0.90, -0.77, -0.77, 4.40, 0.57, 8.57, 827.00, 145.37, 0, 4294967295, 4294967295, 0, 0, 0, 0, 0, 0, 0, 0, 0, 0
$GPGGA,011652.000,3859.6858,N,07656.6422,W,2,09,0.99,88.2,M,-33.5,M,0000,0000*6B
21:15:36, 1679865336, 38.99477, -76.94403, 88.20, 9, 0, 1, 0, 15.75, 100931.36, -228.16, 88.20, 0.21, 0.02, -1.00, -0.79, -0.79, 4.98, 0.62, 9.08, 829.00, 145.72, 0, 4294967295, 4294967295, 0, 0, 0, 0, 0, 0, 0, 0, 0, 0
$GPGGA,011654.000,3859.6863,N,07656.6418,W,2,09,0.99,86.3,M,-33.5,M,0000,0000*63
21:15:37, 1679865337, 38.99477, -76.94402, 86.30, 9, 0, 1, 0, 15.77, 100930.63, -228.10, 86.30, 0.06, 0.00, -1.90, -0.96, -0.96, 6.32, 0.52, 7.58, 823.00, 144.67, 0, 4294967295, 4294967295, 0, 0, 0, 0, 0, 0, 0, 0, 0, 0
$GPGGA,011655.000,3859.6865,N,07656.6416,W,2,07,1.02,85.6,M,-33.5,M,0000,0000*61
21:15:38, 1679865338, 38.99478, -76.94402, 85.60, 7, 0, 1, 0, 15.79, 100937.16, -228.64, 85.60, -0.55, -0.09, -0.70, -0.78, -0.78, 7.41, 2.20, 6.83, 824.00, 144.84, 0, 4294967295, 4294967295, 0, 0, 0, 0, 0, 0, 0, 0, 0, 0
$GPGGA,011656.000,3859.6866,N,07656.6414,W,2,09,0.99,84.9,M,-33.5,M,0000,0000*60
21:15:39, 1679865339, 38.99478, -76.94402, 84.90, 9, 0, 1, 0, 15.81, 100932.36, -228.24, 84.90, 0.40, 0.05, -0.70, -0.79, -0.79, 7.42, 1.92, 6.66, 865.00, 152.05, 0, 4294967295, 4294967295, 0, 0, 0, 0, 0, 0, 0, 0, 0, 0
$GPGGA,011657.000,3859.6867,N,07656.6411,W,2,09,0.99,84.1,M,-33.5,M,0000,0000*6D
21:15:40, 1679865340, 38.99478, -76.94402, 84.10, 9, 0, 1, 0, 15.83, 100933.42, -228.33, 84.10, -0.09, -0.02, -0.80, -0.82, -0.82, 7.33, 2.59, 6.84, 825.00, 145.02, 0, 4294967295, 4294967295, 0, 0, 0, 0, 0, 0, 0, 0, 0, 0
$GPGGA,011658.000,3859.6868,N,07656.6409,W,2,09,0.99,83.5,M,-33.5,M,0000,0000*67
